[{"item":"http://www.wikidata.org/entity/Q19835573","itemLabel":"Bockum-Hövel","latitude":"51.69722222","longitude":"7.74833333"},{"item":"http://www.wikidata.org/entity/Q2773","itemLabel":"Brunswick","latitude":"52.269166666667","longitude":"10.521111111111"},{"item":"http://www.wikidata.org/entity/Q32061466","itemLabel":"Idar-Oberstein","latitude":"49.714444444444","longitude":"7.3077777777778"},{"item":"http://www.wikidata.org/entity/Q552390","itemLabel":"Wittingen","latitude":"52.72805","longitude":"10.7391"},{"item":"http://www.wikidata.org/entity/Q33529058","itemLabel":"Q33529058","latitude":"53.922222222222","longitude":"11.674444444444"},{"item":"http://www.wikidata.org/entity/Q3214","itemLabel":"Cottbus","latitude":"51.760805555556","longitude":"14.331861111111"},{"item":"http://www.wikidata.org/entity/Q32063702","itemLabel":"Kalbe","latitude":"52.656666666667","longitude":"11.384444444444"},{"item":"http://www.wikidata.org/entity/Q165380","itemLabel":"Hann. Münden","latitude":"51.416666666667","longitude":"9.65"},{"item":"http://www.wikidata.org/entity/Q3958","itemLabel":"Neubrandenbourg","latitude":"53.556944444444","longitude":"13.260833333333"},{"item":"http://www.wikidata.org/entity/Q3939","itemLabel":"Dinslaken","latitude":"51.566666666667","longitude":"6.7333333333333"},{"item":"http://www.wikidata.org/entity/Q3489","itemLabel":"Harbourg","latitude":"53.459258333333","longitude":"9.9826722222222"},{"item":"http://www.wikidata.org/entity/Q1729","itemLabel":"Erfurt","latitude":"50.978055555556","longitude":"11.029166666667"},{"item":"http://www.wikidata.org/entity/Q57924","itemLabel":"Lugau/Erzgeb.","latitude":"50.738333333333","longitude":"12.746388888889"},{"item":"http://www.wikidata.org/entity/Q3138","itemLabel":"Trèves","latitude":"49.75565","longitude":"6.63935"},{"item":"http://www.wikidata.org/entity/Q53314634","itemLabel":"Altötting","latitude":"48.22638","longitude":"12.67587"},{"item":"http://www.wikidata.org/entity/Q8693","itemLabel":"Coswig","latitude":"51.133333333333","longitude":"13.583333333333"},{"item":"http://www.wikidata.org/entity/Q4133","itemLabel":"Nordhorn","latitude":"52.433333333333","longitude":"7.0666666666667"},{"item":"http://www.wikidata.org/entity/Q1731","itemLabel":"Dresde","latitude":"51.05","longitude":"13.74"},{"item":"http://www.wikidata.org/entity/Q1709","itemLabel":"Schwerin","latitude":"53.628888888889","longitude":"11.415"},{"item":"http://www.wikidata.org/entity/Q82960","itemLabel":"Rottweil","latitude":"48.168055555556","longitude":"8.6247222222222"},{"item":"http://www.wikidata.org/entity/Q6855","itemLabel":"Lörrach","latitude":"47.615555555556","longitude":"7.6613888888889"},{"item":"http://www.wikidata.org/entity/Q3834","itemLabel":"Constance","latitude":"47.663333333333","longitude":"9.1752777777778"},{"item":"http://www.wikidata.org/entity/Q3928","itemLabel":"Norderstedt","latitude":"53.706388888889","longitude":"10.010277777778"},{"item":"http://www.wikidata.org/entity/Q1591499","itemLabel":"Havelse","latitude":"52.4267","longitude":"9.60333"},{"item":"http://www.wikidata.org/entity/Q31925653","itemLabel":"Burg Stargard","latitude":"53.5","longitude":"13.3167"},{"item":"http://www.wikidata.org/entity/Q572013","itemLabel":"Penkun","latitude":"53.3","longitude":"14.25"},{"item":"http://www.wikidata.org/entity/Q3138","itemLabel":"Trèves","latitude":"49.756666666667","longitude":"6.6413888888889"},{"item":"http://www.wikidata.org/entity/Q14957","itemLabel":"Papenbourg","latitude":"53.066666666667","longitude":"7.4"},{"item":"http://www.wikidata.org/entity/Q1726","itemLabel":"Munich","latitude":"48.1375","longitude":"11.575"},{"item":"http://www.wikidata.org/entity/Q32189647","itemLabel":"Nienburg","latitude":"52.646111111111","longitude":"9.2208333333333"},{"item":"http://www.wikidata.org/entity/Q32067904","itemLabel":"Kreisfreie Stadt Erfurt","latitude":"50.98278","longitude":"11.0425"},{"item":"http://www.wikidata.org/entity/Q14903","itemLabel":"Voerde","latitude":"51.6","longitude":"6.6833333333333"},{"item":"http://www.wikidata.org/entity/Q251678","itemLabel":"Aichach","latitude":"48.45","longitude":"11.133333333333"},{"item":"http://www.wikidata.org/entity/Q200122","itemLabel":"Linnich","latitude":"50.978888888889","longitude":"6.2677777777778"},{"item":"http://www.wikidata.org/entity/Q32055985","itemLabel":"Heinsberg","latitude":"51.063611111111","longitude":"6.0997222222222"},{"item":"http://www.wikidata.org/entity/Q2999","itemLabel":"Wurtzbourg","latitude":"49.794444444444","longitude":"9.9294444444444"},{"item":"http://www.wikidata.org/entity/Q5276","itemLabel":"Altena","latitude":"51.3","longitude":"7.6666666666667"},{"item":"http://www.wikidata.org/entity/Q4024","itemLabel":"Francfort-sur-l'Oder","latitude":"52.342083333333","longitude":"14.551666666667"},{"item":"http://www.wikidata.org/entity/Q8856","itemLabel":"Straelen","latitude":"51.45","longitude":"6.2666666666667"},{"item":"http://www.wikidata.org/entity/Q49278237","itemLabel":"Sonthofen","latitude":"47.518333333333","longitude":"10.2825"},{"item":"http://www.wikidata.org/entity/Q1733","itemLabel":"Magdebourg","latitude":"52.131666666667","longitude":"11.639166666667"},{"item":"http://www.wikidata.org/entity/Q165140","itemLabel":"Herrnhut","latitude":"51.016666666667","longitude":"14.741666666667"},{"item":"http://www.wikidata.org/entity/Q22953","itemLabel":"Annweiler am Trifels","latitude":"49.203333333333","longitude":"7.9666666666667"},{"item":"http://www.wikidata.org/entity/Q558195","itemLabel":"Lahn","latitude":"50.57222222","longitude":"8.58888889"},{"item":"http://www.wikidata.org/entity/Q4108","itemLabel":"Bad Salzuflen","latitude":"52.083333333333","longitude":"8.7466666666667"},{"item":"http://www.wikidata.org/entity/Q622","itemLabel":"Louisbourg","latitude":"48.8975","longitude":"9.1919444444444"},{"item":"http://www.wikidata.org/entity/Q4051","itemLabel":"Friedrichshafen","latitude":"47.654166666667","longitude":"9.4791666666667"},{"item":"http://www.wikidata.org/entity/Q204966","itemLabel":"Übach-Palenberg","latitude":"50.919722222222","longitude":"6.1194444444444"},{"item":"http://www.wikidata.org/entity/Q33427844","itemLabel":"Q33427844","latitude":"51.551111111111","longitude":"8.5594444444444"},{"item":"http://www.wikidata.org/entity/Q4113","itemLabel":"Pulheim","latitude":"51.0","longitude":"6.8"},{"item":"http://www.wikidata.org/entity/Q3012","itemLabel":"Ulm","latitude":"48.39841","longitude":"9.99155"},{"item":"http://www.wikidata.org/entity/Q14956","itemLabel":"Wesseling","latitude":"50.82075","longitude":"6.9786"},{"item":"http://www.wikidata.org/entity/Q4103058","itemLabel":"Q4103058","latitude":"49.3","longitude":"8.65"},{"item":"http://www.wikidata.org/entity/Q1987956","itemLabel":"Niederlahnstein","latitude":"50.316944444444","longitude":"7.5997222222222"},{"item":"http://www.wikidata.org/entity/Q4044","itemLabel":"Offenbourg","latitude":"48.470833333333","longitude":"7.9408333333333"},{"item":"http://www.wikidata.org/entity/Q570108","itemLabel":"Bad Wilsnack","latitude":"52.95","longitude":"11.949722222222"},{"item":"http://www.wikidata.org/entity/Q7019","itemLabel":"Albstadt","latitude":"48.211944444444","longitude":"9.0238888888889"},{"item":"http://www.wikidata.org/entity/Q3922","itemLabel":"Detmold","latitude":"51.937777777778","longitude":"8.8833333333333"},{"item":"http://www.wikidata.org/entity/Q3771","itemLabel":"Gütersloh","latitude":"51.9","longitude":"8.3833333333333"},{"item":"http://www.wikidata.org/entity/Q16022","itemLabel":"Barsinghausen","latitude":"52.303055555556","longitude":"9.4605555555556"},{"item":"http://www.wikidata.org/entity/Q7039","itemLabel":"Lahr/Schwarzwald","latitude":"48.339166666667","longitude":"7.8722222222222"},{"item":"http://www.wikidata.org/entity/Q14912","itemLabel":"Sarrelouis","latitude":"49.316666666667","longitude":"6.75"},{"item":"http://www.wikidata.org/entity/Q17586994","itemLabel":"Ambitarvius","latitude":"50.359722","longitude":"7.597778"},{"item":"http://www.wikidata.org/entity/Q31997476","itemLabel":"Erfurt","latitude":"50.9787","longitude":"11.03283"},{"item":"http://www.wikidata.org/entity/Q7030","itemLabel":"Wismar","latitude":"53.8925","longitude":"11.465"},{"item":"http://www.wikidata.org/entity/Q11043","itemLabel":"Wiehl","latitude":"50.95","longitude":"7.5333333333333"},{"item":"http://www.wikidata.org/entity/Q536826","itemLabel":"Grabow","latitude":"53.279785","longitude":"11.553129"},{"item":"http://www.wikidata.org/entity/Q15984","itemLabel":"Leer","latitude":"53.230833333333","longitude":"7.4527777777778"},{"item":"http://www.wikidata.org/entity/Q1715","itemLabel":"Hanovre","latitude":"52.374444444444","longitude":"9.7386111111111"},{"item":"http://www.wikidata.org/entity/Q523394","itemLabel":"Damme","latitude":"52.522222222222","longitude":"8.1955555555556"},{"item":"http://www.wikidata.org/entity/Q853708","itemLabel":"District de Charlottenburg","latitude":"52.5147","longitude":"13.2836"},{"item":"http://www.wikidata.org/entity/Q49277802","itemLabel":"Köthen","latitude":"51.75185","longitude":"11.97093"},{"item":"http://www.wikidata.org/entity/Q6780","itemLabel":"Hohnstein","latitude":"50.983333333333","longitude":"14.116666666667"},{"item":"http://www.wikidata.org/entity/Q7036","itemLabel":"Brühl","latitude":"50.833333333333","longitude":"6.9"},{"item":"http://www.wikidata.org/entity/Q2079","itemLabel":"Leipzig","latitude":"51.34","longitude":"12.375"},{"item":"http://www.wikidata.org/entity/Q4011","itemLabel":"Wesel","latitude":"51.658611111111","longitude":"6.6177777777778"},{"item":"http://www.wikidata.org/entity/Q1766020","itemLabel":"Oberlahnstein","latitude":"50.3","longitude":"7.6166666666667"},{"item":"http://www.wikidata.org/entity/Q5398","itemLabel":"Zülpich","latitude":"50.7","longitude":"6.65"},{"item":"http://www.wikidata.org/entity/Q3786","itemLabel":"Esslingen am Neckar","latitude":"48.740555555556","longitude":"9.3108333333333"},{"item":"http://www.wikidata.org/entity/Q10779","itemLabel":"Zwenkau","latitude":"51.2175","longitude":"12.324166666667"}]