[{"item":"http://www.wikidata.org/entity/Q28735021","itemLabel":"Diözesan- und Pastoralbibliothek","latitude":"48.3626","longitude":"10.88905"},{"item":"http://www.wikidata.org/entity/Q28735006","itemLabel":"Kreis- und Fahrbibliothek Hainichen","latitude":"50.97697","longitude":"13.11647"},{"item":"http://www.wikidata.org/entity/Q28737677","itemLabel":"Georg-Eckert-Institut - Leibniz-Institut für internationale Schulbuchforschung, Bibliothek","latitude":"52.26825","longitude":"10.5108"},{"item":"http://www.wikidata.org/entity/Q28737723","itemLabel":"Johann-Adam-Möhler-Institut für Ökumenik, Bibliothek","latitude":"51.71378","longitude":"8.75789"},{"item":"http://www.wikidata.org/entity/Q28737686","itemLabel":"Industrie- und Handelskammer Braunschweig, Bibliothek","latitude":"52.2624","longitude":"10.51797"},{"item":"http://www.wikidata.org/entity/Q28734924","itemLabel":"Ortsbücherei Gäufelden","latitude":"48.56329","longitude":"8.84396"},{"item":"http://www.wikidata.org/entity/Q28734978","itemLabel":"Alexander-Haas-Bibliothek der Gesellschaft für Christlich-Jüdische Zusammenarbeit in Darmstadt","latitude":"49.87258","longitude":"8.64457"},{"item":"http://www.wikidata.org/entity/Q28734998","itemLabel":"Bibliothek des Studienzentrums der Finanzverwaltung und Justiz in Rotenburg a. d. Fulda","latitude":"50.99142","longitude":"9.73122"},{"item":"http://www.wikidata.org/entity/Q28737661","itemLabel":"Deutsches Elektronen-Synchrotron DESY, Bibliothek und Dokumentation","latitude":"53.57677","longitude":"9.87832"},{"item":"http://www.wikidata.org/entity/Q28737712","itemLabel":"LWL-Amt für Denkmalpflege, Landschafts- und Baukultur in Westfalen, Bibliothek","latitude":"51.96352","longitude":"7.63531"},{"item":"http://www.wikidata.org/entity/Q28737651","itemLabel":"Fachbibliothek Umwelt des Umweltbundesamtes, Standort Berlin","latitude":"52.49296","longitude":"13.28235"},{"item":"http://www.wikidata.org/entity/Q28734920","itemLabel":"Bibliothek Schwieberdingen","latitude":"48.87588","longitude":"9.07375"},{"item":"http://www.wikidata.org/entity/Q28737718","itemLabel":"LWL-Archäologie für Westfalen, Zentrale Dienste, Bibliothek","latitude":"51.99773","longitude":"7.63448"},{"item":"http://www.wikidata.org/entity/Q28734922","itemLabel":"Ortsbücherei Wolfschlugen","latitude":"48.65222","longitude":"9.28688"},{"item":"http://www.wikidata.org/entity/Q28735032","itemLabel":"Ortsbücherei Murr","latitude":"48.96092","longitude":"9.26222"},{"item":"http://www.wikidata.org/entity/Q28737683","itemLabel":"Stadt Braunschweig, Rechtsreferat, Verwaltungsbücherei","latitude":"52.26474","longitude":"10.52594"},{"item":"http://www.wikidata.org/entity/Q28737741","itemLabel":"bibliothèque du ministère fédéral des Affaires étrangères","latitude":"52.51513","longitude":"13.39907"},{"item":"http://www.wikidata.org/entity/Q28737649","itemLabel":"Deutsches Zentralinstitut für Soziale Fragen (DZI), Bibliothek","latitude":"52.46536","longitude":"13.29236"},{"item":"http://www.wikidata.org/entity/Q28734933","itemLabel":"Bibliothek Abtsgmünd","latitude":"48.89492","longitude":"10.00412"},{"item":"http://www.wikidata.org/entity/Q28737684","itemLabel":"Verwaltungsgericht, Bibliothek","latitude":"52.2714","longitude":"10.52451"},{"item":"http://www.wikidata.org/entity/Q28734952","itemLabel":"Öffentliche Bücherei Creglingen","latitude":"49.4684","longitude":"10.0331"},{"item":"http://www.wikidata.org/entity/Q28737652","itemLabel":"Bibliothèque de l'Institut Français de Berlin","latitude":"52.50213","longitude":"13.32487"},{"item":"http://www.wikidata.org/entity/Q28734934","itemLabel":"Ortsbücherei Nordheim","latitude":"49.10927","longitude":"9.12912"},{"item":"http://www.wikidata.org/entity/Q28737643","itemLabel":"Bibliothek des Herold - Verein für Heraldik, Genealogie und verwandte Wissenschaften","latitude":"52.46217","longitude":"13.2926"},{"item":"http://www.wikidata.org/entity/Q28737654","itemLabel":"Bibliothek des Canisius-Kollegs","latitude":"52.50877","longitude":"13.3543"},{"item":"http://www.wikidata.org/entity/Q28737738","itemLabel":"Bundesamt für Justiz, Bibliothek","latitude":"50.73432","longitude":"7.10558"},{"item":"http://www.wikidata.org/entity/Q28734928","itemLabel":"Bücherei im Alten Schulhaus Bad Boll","latitude":"48.63916","longitude":"9.61678"},{"item":"http://www.wikidata.org/entity/Q28734993","itemLabel":"Owinger Bücherei","latitude":"48.33728","longitude":"8.83085"},{"item":"http://www.wikidata.org/entity/Q28734971","itemLabel":"Büchereizentrale Schleswig-Holstein","latitude":"54.29599","longitude":"9.66631"},{"item":"http://www.wikidata.org/entity/Q28737711","itemLabel":"LWL-Institut für westfälische Regionalgeschichte, Bibliothek","latitude":"51.9597","longitude":"7.6314"},{"item":"http://www.wikidata.org/entity/Q28735014","itemLabel":"Bibliothek Beetzendorf","latitude":"52.70259","longitude":"11.09005"},{"item":"http://www.wikidata.org/entity/Q28737655","itemLabel":"Abgeordnetenhaus von Berlin, Bibliothek und Dokumentation","latitude":"52.50804","longitude":"13.38165"},{"item":"http://www.wikidata.org/entity/Q28734941","itemLabel":"Katholische Öffentliche Bücherei St. Jakobus","latitude":"49.33577","longitude":"8.12982"},{"item":"http://www.wikidata.org/entity/Q28737645","itemLabel":"Informationszentrum und Bibliothek Berlin-Dahlem des Julius Kühn-Instituts","latitude":"52.45822","longitude":"13.29867"},{"item":"http://www.wikidata.org/entity/Q28735054","itemLabel":"Kreisfahrbücherei Dillingen/Do.","latitude":"48.56231","longitude":"10.6796"},{"item":"http://www.wikidata.org/entity/Q28734916","itemLabel":"Arbeitsgemeinschaft Niedersächsischer Behördenbibliotheken","latitude":"52.37112","longitude":"9.72971"},{"item":"http://www.wikidata.org/entity/Q28737653","itemLabel":"Staatliches Institut für Musikforschung - Preußischer Kulturbesitz, Bibliothek","latitude":"52.50994","longitude":"13.37072"},{"item":"http://www.wikidata.org/entity/Q28737713","itemLabel":"Landschaftsverband Westfalen-Lippe, LWL-Bibliothek","latitude":"51.97078","longitude":"7.64088"},{"item":"http://www.wikidata.org/entity/Q28737676","itemLabel":"Evangelisch-Lutherischen Landeskirche in Braunschweig, Predigerseminar, Bibliothek","latitude":"52.26507","longitude":"10.51906"},{"item":"http://www.wikidata.org/entity/Q28737695","itemLabel":"museum kunst palast, Bibliothek","latitude":"51.23499","longitude":"6.7731"},{"item":"http://www.wikidata.org/entity/Q28735047","itemLabel":"Bibliothek der Verwaltungsgemeinschaft Bad Tennstedt","latitude":"51.15511","longitude":"10.83963"},{"item":"http://www.wikidata.org/entity/Q28735045","itemLabel":"Stadt- und Pfarrbücherei Greding","latitude":"49.0456","longitude":"11.35275"},{"item":"http://www.wikidata.org/entity/Q28737641","itemLabel":"Bibliothek des Ibero-Amerikanischen Instituts Preußischer Kulturbesitz","latitude":"52.50691","longitude":"13.36973"},{"item":"http://www.wikidata.org/entity/Q28737729","itemLabel":"GESIS - Leibniz-Institut für Sozialwissenschaften, Bibliothek Köln","latitude":"50.94264","longitude":"6.9519"},{"item":"http://www.wikidata.org/entity/Q28737693","itemLabel":"Herder-Institut für historische Ostmitteleuropaforschung, Bibliothek","latitude":"50.80901","longitude":"8.76077"},{"item":"http://www.wikidata.org/entity/Q28735057","itemLabel":"Bibliothek der Bayerischen Akademie für Jagd und Natur","latitude":"48.14731","longitude":"11.73277"},{"item":"http://www.wikidata.org/entity/Q28734958","itemLabel":"Öffentliche Bibliothek Bad Krozingen","latitude":"47.91618","longitude":"7.70006"},{"item":"http://www.wikidata.org/entity/Q28734987","itemLabel":"Stadt- und Schulbibliothek Kelsterbach","latitude":"50.06507","longitude":"8.52933"},{"item":"http://www.wikidata.org/entity/Q28737740","itemLabel":"Bundesministerium für Bildung und Forschung, Bibliothek","latitude":"50.70344","longitude":"7.13735"},{"item":"http://www.wikidata.org/entity/Q28734999","itemLabel":"Katholische Öffentliche Bücherei St. Gertrud Leimersheim","latitude":"49.12461","longitude":"8.34275"},{"item":"http://www.wikidata.org/entity/Q28734908","itemLabel":"Bücherei im FORUM","latitude":"48.39443","longitude":"8.97192"},{"item":"http://www.wikidata.org/entity/Q28734953","itemLabel":"Bücherei Köngen","latitude":"48.68426","longitude":"9.36119"},{"item":"http://www.wikidata.org/entity/Q28737703","itemLabel":"LWL - Landesmuseum für Kunst und Kulturgeschichte, Westfälisches Landesmuseum, Bibliothek","latitude":"51.96138","longitude":"7.62414"},{"item":"http://www.wikidata.org/entity/Q28737734","itemLabel":"Forschungszentrum Jülich GmbH, Zentralbibliothek","latitude":"50.90682","longitude":"6.41026"},{"item":"http://www.wikidata.org/entity/Q28734930","itemLabel":"Bücherei Gemmingen","latitude":"49.1551","longitude":"8.98115"},{"item":"http://www.wikidata.org/entity/Q28737727","itemLabel":"Max Rubner-Institut, Bibliothek Detmold","latitude":"51.92995","longitude":"8.86848"},{"item":"http://www.wikidata.org/entity/Q28737708","itemLabel":"Deutsche Rentenversicherung Westfalen, Bibliothek","latitude":"51.97814","longitude":"7.63732"},{"item":"http://www.wikidata.org/entity/Q28735009","itemLabel":"Klosterbibliothek Weltenburg","latitude":"48.89924","longitude":"11.82026"},{"item":"http://www.wikidata.org/entity/Q28735053","itemLabel":"Schulbibliothek der Elisabeth-Selbert-Gesamtschule","latitude":"50.69532","longitude":"7.14842"},{"item":"http://www.wikidata.org/entity/Q28734938","itemLabel":"Ortsbücherei Magstadt","latitude":"48.74216","longitude":"8.9648"},{"item":"http://www.wikidata.org/entity/Q28737646","itemLabel":"Deutsches Archäologisches Institut, Bibliothek der Zentrale Berlin","latitude":"52.46471","longitude":"13.29654"},{"item":"http://www.wikidata.org/entity/Q28734966","itemLabel":"Historische Bibliothek des Museums der Barlachstadt Güstrow","latitude":"53.79264","longitude":"12.17166"},{"item":"http://www.wikidata.org/entity/Q28737697","itemLabel":"Stahlinstitut VDEh, Informationsbereich Technik und Bibliothek","latitude":"51.23899","longitude":"6.81369"},{"item":"http://www.wikidata.org/entity/Q28737667","itemLabel":"Max Rubner-Institut, Bibliothek Kiel","latitude":"54.32109","longitude":"10.12336"},{"item":"http://www.wikidata.org/entity/Q28737673","itemLabel":"Julius Kühn-Institut, Informationszentrum und Bibliothek Braunschweig","latitude":"52.27016","longitude":"10.57073"},{"item":"http://www.wikidata.org/entity/Q28737707","itemLabel":"Oberfinanzdirektion NRW Dienstsitz Münster, Bibliothek","latitude":"51.93509","longitude":"7.65722"},{"item":"http://www.wikidata.org/entity/Q28734929","itemLabel":"Bücherei Denkendorf","latitude":"48.6937","longitude":"9.31839"},{"item":"http://www.wikidata.org/entity/Q28737691","itemLabel":"Deutsches Institut für tropische und subtropische Landwirtschaft GmbH, bibliothèque","latitude":"51.34449","longitude":"9.86046"},{"item":"http://www.wikidata.org/entity/Q28737735","itemLabel":"Deutsche Zentralbibliothek für Medizin - Leibniz-Informationszentrum Lebenswissenschaften, Bonn","latitude":"50.72689","longitude":"7.08691"},{"item":"http://www.wikidata.org/entity/Q28734932","itemLabel":"Bibliothek im Bildungszentrum Weissacher Tal","latitude":"48.92134","longitude":"9.48718"},{"item":"http://www.wikidata.org/entity/Q28737721","itemLabel":"Julius-Kühn-Institut, Informationszentrum und Bibliothek Münster","latitude":"51.97494","longitude":"7.56732"},{"item":"http://www.wikidata.org/entity/Q28737644","itemLabel":"Bibliothek der Gesellschaft für Erdkunde zu Berlin","latitude":"52.42702","longitude":"13.35607"},{"item":"http://www.wikidata.org/entity/Q28737699","itemLabel":"Stiftung Gerhart-Hauptmann-Haus, Deutsch-osteuropäisches Forum, Bibliothek","latitude":"51.22111","longitude":"6.78918"},{"item":"http://www.wikidata.org/entity/Q28734963","itemLabel":"Bibliothek des Religionspädagogischen Seminars Augsburg","latitude":"48.37208","longitude":"10.89767"},{"item":"http://www.wikidata.org/entity/Q28734926","itemLabel":"Ortsbücherei Gingen","latitude":"48.65731","longitude":"9.78036"},{"item":"http://www.wikidata.org/entity/Q28734944","itemLabel":"Bibliothek der Museen Stade","latitude":"53.60402","longitude":"9.47715"},{"item":"http://www.wikidata.org/entity/Q28735023","itemLabel":"Joseph Bernhart Bibliothek","latitude":"48.34518","longitude":"10.90678"},{"item":"http://www.wikidata.org/entity/Q28735022","itemLabel":"Kapitelbibliotheken der Diözese Augsburg","latitude":"48.34518","longitude":"10.90678"},{"item":"http://www.wikidata.org/entity/Q28735002","itemLabel":"Bibliothek & Mediothek des Bistums Münster","latitude":"51.95552","longitude":"7.60389"},{"item":"http://www.wikidata.org/entity/Q28735046","itemLabel":"Bibliothek im Lette-Verein","latitude":"52.49602","longitude":"13.34117"},{"item":"http://www.wikidata.org/entity/Q28737663","itemLabel":"Helmholtz-Zentrum für Ozeanforschung Kiel (GEOMAR), Bibliothek Westufer","latitude":"54.32995","longitude":"10.14845"},{"item":"http://www.wikidata.org/entity/Q28735015","itemLabel":"Bibliothek Großauheim","latitude":"50.10326","longitude":"8.94351"},{"item":"http://www.wikidata.org/entity/Q28737672","itemLabel":"Landesamt für Bergbau, Energie und Geologie, Bibliothek Clausthal","latitude":"51.80426","longitude":"10.33313"},{"item":"http://www.wikidata.org/entity/Q28737657","itemLabel":"Geographische Gesellschaft in Hamburg, Bibliothek","latitude":"53.5682","longitude":"9.9739"},{"item":"http://www.wikidata.org/entity/Q28735004","itemLabel":"Bücherei-Mediathek-Zetel in der Gemeinde Zetel","latitude":"53.41915","longitude":"7.96749"},{"item":"http://www.wikidata.org/entity/Q28735052","itemLabel":"Öffentliche Bibliothek Kirchzarten","latitude":"47.96006","longitude":"7.95631"},{"item":"http://www.wikidata.org/entity/Q28735051","itemLabel":"Bibliothek der Heimatpflege des Bezirks Schwaben","latitude":"48.36847","longitude":"10.88952"},{"item":"http://www.wikidata.org/entity/Q28734925","itemLabel":"Bibliothek Remshalden","latitude":"48.8105","longitude":"9.43735"},{"item":"http://www.wikidata.org/entity/Q28737658","itemLabel":"Bernhard-Nocht-Institut für Tropenmedizin, Bibliothek","latitude":"53.54684","longitude":"9.96498"},{"item":"http://www.wikidata.org/entity/Q28734918","itemLabel":"Kreisergänzungsbücherei Ludwigsburg","latitude":"48.89341","longitude":"9.1677"},{"item":"http://www.wikidata.org/entity/Q28737705","itemLabel":"Bezirksregierung, Bibliothek","latitude":"51.96177","longitude":"7.62656"},{"item":"http://www.wikidata.org/entity/Q28737716","itemLabel":"Landwirtschaftskammer Nordrhein-Westfalen, Bibliothek","latitude":"50.73709","longitude":"7.19407"},{"item":"http://www.wikidata.org/entity/Q28734935","itemLabel":"Bücherei Pleidelsheim","latitude":"48.96058","longitude":"9.209"},{"item":"http://www.wikidata.org/entity/Q28737642","itemLabel":"ehemalige Bibliothek des Deutschen Vereins für Vermessungswesen (DVW)","latitude":"51.35399","longitude":"12.374"},{"item":"http://www.wikidata.org/entity/Q28737688","itemLabel":"Landeskirchliche Bibliothek, Bibliothek für Religionspädagogik","latitude":"52.1589","longitude":"10.55036"},{"item":"http://www.wikidata.org/entity/Q28734982","itemLabel":"Schulbibliothek Fritz-Ruoff- und Albert-Schäffle-Schule Nürtingen","latitude":"48.62895","longitude":"9.3543"},{"item":"http://www.wikidata.org/entity/Q28737669","itemLabel":"Friedrich-Loeffler-Institut, Institut für Tierschutz und Tierhaltung, Bibliothek","latitude":"52.63158","longitude":"10.09869"},{"item":"http://www.wikidata.org/entity/Q28737668","itemLabel":"Niedersächsische Landesgalerie, Bibliothek","latitude":"52.36546","longitude":"9.74042"},{"item":"http://www.wikidata.org/entity/Q28737656","itemLabel":"Deutsches Institut für Entwicklungspolitik, Bibliothek","latitude":"50.7155","longitude":"7.12553"},{"item":"http://www.wikidata.org/entity/Q28735039","itemLabel":"Städtische Volksbücherei","latitude":"49.45714","longitude":"10.99169"},{"item":"http://www.wikidata.org/entity/Q28737886","itemLabel":"Archenhold-Sternwarte, Bibliothek","latitude":"52.48588","longitude":"13.47654"},{"item":"http://www.wikidata.org/entity/Q28737906","itemLabel":"Leibniz-Institut für Zoo- und Wildtierforschung im Forschungsverbund Berlin e.V. (IZW), Bibliothek","latitude":"52.50614","longitude":"13.52126"},{"item":"http://www.wikidata.org/entity/Q28737770","itemLabel":"Industrie- und Handelskammer Frankfurt am Main, Bibliothek","latitude":"50.11519","longitude":"8.67757"},{"item":"http://www.wikidata.org/entity/Q28737798","itemLabel":"Deutsch-Amerikanisches Institut Heidelberg, Bibliothek","latitude":"49.40778","longitude":"8.69392"},{"item":"http://www.wikidata.org/entity/Q28737813","itemLabel":"Design-Bibliothek, Haus der Wirtschaft","latitude":"48.77891","longitude":"9.17378"},{"item":"http://www.wikidata.org/entity/Q28737870","itemLabel":"Bayerischer Landesverein für Heimatpflege e.V., Präsenzbibliothek","latitude":"48.14814","longitude":"11.57969"},{"item":"http://www.wikidata.org/entity/Q28737826","itemLabel":"Staatliches Museum für Naturkunde, Bibliothek","latitude":"49.00707","longitude":"8.40023"},{"item":"http://www.wikidata.org/entity/Q28737774","itemLabel":"Julius Kühn-Institut, Institut für Biologischen Pflanzenschutz, Bibliothek","latitude":"49.867680656832","longitude":"8.6829408540194"},{"item":"http://www.wikidata.org/entity/Q28737839","itemLabel":"Chemisches und Veterinäruntersuchungsamt Freiburg, Dienstgebäude Tierhygiene, Bibliothek","latitude":"48.0338","longitude":"7.8418"},{"item":"http://www.wikidata.org/entity/Q28737824","itemLabel":"Regierungspräsidium Tübingen, Ref. 26 Denkmalpflege, Fachbibliothek","latitude":"48.50945","longitude":"9.06505"},{"item":"http://www.wikidata.org/entity/Q28737820","itemLabel":"Evangelisches Stift, Bibliothek","latitude":"48.51945","longitude":"9.05265"},{"item":"http://www.wikidata.org/entity/Q28737760","itemLabel":"Dienstleistungszentrum Ländlicher Raum (DLR) Mosel, Bibliothek","latitude":"49.73988","longitude":"6.64769"},{"item":"http://www.wikidata.org/entity/Q28737791","itemLabel":"Deutsches Krebsforschungszentrum, Zentralbibliothek","latitude":"49.41458","longitude":"8.67204"},{"item":"http://www.wikidata.org/entity/Q28737845","itemLabel":"Städtische Museen Freiburg, Augustinermuseum/Museum für Neue Kunst, Bibliothek","latitude":"47.9933","longitude":"7.85314"},{"item":"http://www.wikidata.org/entity/Q28737781","itemLabel":"Akademie der Wissenschaften und der Literatur, Bibliothek","latitude":"49.97661","longitude":"8.27122"},{"item":"http://www.wikidata.org/entity/Q28737815","itemLabel":"Erzabtei St. Martin zu Beuron, Bibliothek","latitude":"48.05069","longitude":"8.96902"},{"item":"http://www.wikidata.org/entity/Q28737885","itemLabel":"Stiftung 'Oper in Berlin', Deutsche Staatsoper, Bibliothek","latitude":"52.51659","longitude":"13.3947"},{"item":"http://www.wikidata.org/entity/Q28737871","itemLabel":"Institut für Zeitgeschichte München - Berlin, Bibliothek","latitude":"48.15676","longitude":"11.54352"},{"item":"http://www.wikidata.org/entity/Q28737836","itemLabel":"Regierungspräsidium Freiburg, Abt. 9: Landesamt für Geologie, Rohstoffe und Bergbau, Bibliothek","latitude":"48.00637","longitude":"7.85338"},{"item":"http://www.wikidata.org/entity/Q28737844","itemLabel":"Arnold-Bergstraesser-Institut für kulturwissenschaftliche Forschung, Bibliothek","latitude":"48.01523","longitude":"7.81107"},{"item":"http://www.wikidata.org/entity/Q28737851","itemLabel":"Carl-Schurz-Haus, Deutsch-Amerikanisches Institut e.V., Bibliothek","latitude":"47.99696","longitude":"7.84478"},{"item":"http://www.wikidata.org/entity/Q28737872","itemLabel":"Bundesamt für Strahlenschutz, Fachbereich Strahlenschutz und Gesundheit, Bibliothek","latitude":"48.22117","longitude":"11.58923"},{"item":"http://www.wikidata.org/entity/Q28737794","itemLabel":"Julius Kühn-Institut, Institut für Pflanzenschutz in Obst- und Weinbau, Bibliothek","latitude":"49.44976","longitude":"8.64026"},{"item":"http://www.wikidata.org/entity/Q28737866","itemLabel":"Bayerisches Staatsministerium der Justiz, Bibliothek","latitude":"48.14048","longitude":"11.56468"},{"item":"http://www.wikidata.org/entity/Q28737895","itemLabel":"Zentrum für Literatur- und Kulturforschung, Bibliothek","latitude":"52.50878","longitude":"13.39609"},{"item":"http://www.wikidata.org/entity/Q28737801","itemLabel":"Dokumentations- und Kulturzentrum Deutscher Sinti-Roma e.V., Bibliothek","latitude":"49.41055","longitude":"8.71106"},{"item":"http://www.wikidata.org/entity/Q28737897","itemLabel":"Forschungszentrum Europäische Aufklärung e.V., Bibliothek","latitude":"52.39656","longitude":"13.05612"},{"item":"http://www.wikidata.org/entity/Q28737888","itemLabel":"Bundesanstalt für Arbeitsschutz und Arbeitsmedizin, Wissenschaftliche Information - Fachbibliothek","latitude":"52.5022","longitude":"13.48405"},{"item":"http://www.wikidata.org/entity/Q28737744","itemLabel":"Naturhistorischer Verein der Rheinlande und Westfalens, Bibliothek","latitude":"50.72616","longitude":"7.09003"},{"item":"http://www.wikidata.org/entity/Q28737789","itemLabel":"Litauisches Kulturinstitut, Bibliothek","latitude":"49.59918","longitude":"8.58878"},{"item":"http://www.wikidata.org/entity/Q28737821","itemLabel":"Berufsgenossenschaftliche Unfallklinik, Bibliothek","latitude":"48.53344","longitude":"9.03464"},{"item":"http://www.wikidata.org/entity/Q28737838","itemLabel":"Forstliche Versuchs- und Forschungsanstalt Baden-Württemberg, Bibliothek","latitude":"47.9744","longitude":"7.8429"},{"item":"http://www.wikidata.org/entity/Q28737810","itemLabel":"Deutsche Institute für Textil- und Faserforschung Stuttgart, Institut für Textilchemie und Chemiefasern, Bibliothek","latitude":"48.70066","longitude":"9.34397"},{"item":"http://www.wikidata.org/entity/Q28737812","itemLabel":"Bibliothek des Instituts für Textil- und Verfahrenstechnik","latitude":"48.70066","longitude":"9.34397"},{"item":"http://www.wikidata.org/entity/Q28737898","itemLabel":"Leibniz-Institut für Regionalentwicklung und Strukturplanung e.V.(IRS), Bibliothek","latitude":"52.42758","longitude":"13.75625"},{"item":"http://www.wikidata.org/entity/Q28737822","itemLabel":"Deutsch-Amerikanisches Institut, Bibliothek","latitude":"48.51825","longitude":"9.05829"},{"item":"http://www.wikidata.org/entity/Q28737869","itemLabel":"Münchner Entomologische Gesellschaft","latitude":"48.1645","longitude":"11.48201"},{"item":"http://www.wikidata.org/entity/Q28737848","itemLabel":"Institut für Volkskunde der Deutschen des östlichen Europa, Freiburg (IVDE), Bibliothek","latitude":"47.98462","longitude":"7.8443"},{"item":"http://www.wikidata.org/entity/Q28737825","itemLabel":"Karlsruher Institut für Technologie, KIT-Bibliothek / Zentralbibliothek Nord","latitude":"49.09192","longitude":"8.42838"},{"item":"http://www.wikidata.org/entity/Q28737765","itemLabel":"Institut für Arbeitsrecht und Arbeitsbeziehungen in der Europäischen Union, Bibliothek","latitude":"49.74795","longitude":"6.67514"},{"item":"http://www.wikidata.org/entity/Q28737778","itemLabel":"Statistisches Bundesamt, Bibliothek","latitude":"50.07112","longitude":"8.25233"},{"item":"http://www.wikidata.org/entity/Q28737892","itemLabel":"Deutsches Archäologisches Institut, Eurasien-Abteilung, Bibliothek","latitude":"52.46312","longitude":"13.28168"},{"item":"http://www.wikidata.org/entity/Q28737859","itemLabel":"Botanische Staatssammlung, Bibliothek","latitude":"48.16428","longitude":"11.5007"},{"item":"http://www.wikidata.org/entity/Q28737864","itemLabel":"Akademie der Bildenden Künste, Bibliothek","latitude":"48.15314","longitude":"11.58003"},{"item":"http://www.wikidata.org/entity/Q28737887","itemLabel":"Leibniz-Institut für Gewässerökologie und Binnenfischerei im Forschungsverbund Berlin e.V., Bibliothek","latitude":"52.44878","longitude":"13.64753"},{"item":"http://www.wikidata.org/entity/Q28737828","itemLabel":"Landwirtschaftliches Technologiezentrum Augustenberg, Außenstelle Forchheim, Bibliothek","latitude":"48.96409","longitude":"8.33436"},{"item":"http://www.wikidata.org/entity/Q28737818","itemLabel":"Tropenklinik Paul-Lechler-Krankenhaus, Ärztliche Bibliothek","latitude":"48.53081","longitude":"9.06099"},{"item":"http://www.wikidata.org/entity/Q28737856","itemLabel":"Informationszentrum Dritte Welt, Bibliothek","latitude":"47.98905","longitude":"7.84149"},{"item":"http://www.wikidata.org/entity/Q28737881","itemLabel":"Stiftung Reichspräsident-Friedrich-Ebert-Gedenkstätte, Bibliothek","latitude":"49.41247","longitude":"8.70831"},{"item":"http://www.wikidata.org/entity/Q28737750","itemLabel":"Bibliothek der Forschungsstelle für Jagdkunde und Wildschadenverhütung","latitude":"50.7353","longitude":"7.16859"},{"item":"http://www.wikidata.org/entity/Q28737761","itemLabel":"Deutsches Liturgisches Institut, Bibliothek","latitude":"49.75288","longitude":"6.64151"},{"item":"http://www.wikidata.org/entity/Q28737841","itemLabel":"Badischer Landesverein für Naturkunde und Naturschutz, Bibliothek","latitude":"47.99331","longitude":"7.85159"},{"item":"http://www.wikidata.org/entity/Q28737843","itemLabel":"Museum Natur und Mensch, Abteilung für Naturkunde, Bibliothek","latitude":"47.99331","longitude":"7.85159"},{"item":"http://www.wikidata.org/entity/Q28737776","itemLabel":"GSI Helmholzzentrum für Schwerionenforschung GmbH, Bibliothek & Dokumentation","latitude":"49.93143","longitude":"8.67635"},{"item":"http://www.wikidata.org/entity/Q28737899","itemLabel":"Bundesamt für Strahlenschutz, Dienststelle Berlin, Bibliothek","latitude":"52.48326","longitude":"13.53768"},{"item":"http://www.wikidata.org/entity/Q28737858","itemLabel":"Studienhaus Wiesneck, Institut für politische Bildung Baden-Württemberg e.V., Bibliothek","latitude":"47.96567","longitude":"7.99913"},{"item":"http://www.wikidata.org/entity/Q28737823","itemLabel":"Institut zur Erforschung des Urchristentums, Bibliothek","latitude":"48.53011","longitude":"9.06911"},{"item":"http://www.wikidata.org/entity/Q28737743","itemLabel":"Bibliothek des Bundesinstituts für Bau-, Stadt- und Raumforschung","latitude":"50.67215","longitude":"7.18435"},{"item":"http://www.wikidata.org/entity/Q28737795","itemLabel":"Forschungsstätte der Evangelischen Studiengemeinschaft, Bibliothek","latitude":"49.41457","longitude":"8.72647"},{"item":"http://www.wikidata.org/entity/Q28737831","itemLabel":"Bibliothèque du Mathematisches Forschungsinstitut Oberwolfach","latitude":"48.34432","longitude":"8.2254"},{"item":"http://www.wikidata.org/entity/Q28737849","itemLabel":"Kirchengeschichtlicher Verein der Erzdiözese Freiburg, Bibliothek","latitude":"47.994","longitude":"7.84611"},{"item":"http://www.wikidata.org/entity/Q28737865","itemLabel":"Industrie- und Handelskammer für München und Oberbayern, Bibliothek","latitude":"48.12273","longitude":"11.59875"},{"item":"http://www.wikidata.org/entity/Q28737883","itemLabel":"ZSW Zentrum für Sonnenenergie- und Wasserstoff-Forschung Baden-Württemberg, Geschäftsbereich 3, Bibliothek","latitude":"48.42566","longitude":"9.95975"},{"item":"http://www.wikidata.org/entity/Q28737863","itemLabel":"Bayerische Landesanstalt für Landwirtschaft LfL, Bibliothek","latitude":"48.39877","longitude":"11.73217"},{"item":"http://www.wikidata.org/entity/Q28737846","itemLabel":"Alemannisches Institut, Bibliothek","latitude":"47.99607","longitude":"7.84491"},{"item":"http://www.wikidata.org/entity/Q28737755","itemLabel":"Institut Francais Bonn, Bibliothek","latitude":"50.73171","longitude":"7.10768"},{"item":"http://www.wikidata.org/entity/Q28737800","itemLabel":"Heidelberger Kunstverein e.V., Bibliothek","latitude":"49.41138","longitude":"8.70291"},{"item":"http://www.wikidata.org/entity/Q28737752","itemLabel":"Bischöfliches Seminar und Konvikt Johanneum, Bibliothek","latitude":"50.72996","longitude":"7.09583"},{"item":"http://www.wikidata.org/entity/Q28737797","itemLabel":"Europäisches Laboratorium für Molekularbiologie, Bibliothek","latitude":"49.38466","longitude":"8.71059"},{"item":"http://www.wikidata.org/entity/Q28737862","itemLabel":"Franziskanerkloster St. Anna, Bibliothek","latitude":"48.14039","longitude":"11.58765"},{"item":"http://www.wikidata.org/entity/Q28737874","itemLabel":"Benediktinerabtei Ettal, Bibliothek","latitude":"47.56899","longitude":"11.09398"},{"item":"http://www.wikidata.org/entity/Q28737811","itemLabel":"Institut für Auslandsbeziehungen, Bibliothek","latitude":"48.77606","longitude":"9.1816"},{"item":"http://www.wikidata.org/entity/Q28737867","itemLabel":"Zoologische Staatssammlung, Bibliothek","latitude":"48.16454","longitude":"11.48183"},{"item":"http://www.wikidata.org/entity/Q28737754","itemLabel":"Collegium Albertinum, Bibliothek","latitude":"50.73288","longitude":"7.10846"},{"item":"http://www.wikidata.org/entity/Q28737850","itemLabel":"Badisches Landesmuseum Karlsruhe, Außenstelle Südbaden, Bibliothek","latitude":"47.88319","longitude":"7.73232"},{"item":"http://www.wikidata.org/entity/Q28737854","itemLabel":"Centre Culturel Français Freiburg, Bibliothek","latitude":"47.9942","longitude":"7.847"},{"item":"http://www.wikidata.org/entity/Q28737868","itemLabel":"Landeskirchenamt München, Bibliothek","latitude":"48.14421","longitude":"11.56554"},{"item":"http://www.wikidata.org/entity/Q28737901","itemLabel":"Fachkrankenhaus für Lungenheilkunde und Thoraxchirurgie, Bibliothek","latitude":"52.63406","longitude":"13.5036"},{"item":"http://www.wikidata.org/entity/Q28737882","itemLabel":"Institut für Lasertechnologien in der Medizin an der Universität Ulm, Bibliothek","latitude":"48.42565","longitude":"9.96217"},{"item":"http://www.wikidata.org/entity/Q28737808","itemLabel":"Landtag von Baden-Württemberg, Bibliothek","latitude":"48.77822","longitude":"9.1853"},{"item":"http://www.wikidata.org/entity/Q28737840","itemLabel":"Staatliches Weinbauinstitut, Bibliothek","latitude":"47.97926","longitude":"7.83225"},{"item":"http://www.wikidata.org/entity/Q28737878","itemLabel":"Ostkirchliches Institut der deutschen Augustiner an der Universität Würzburg, Bibliothek","latitude":"49.76991","longitude":"9.89863"},{"item":"http://www.wikidata.org/entity/Q28737805","itemLabel":"Linden-Museum Stuttgart, Bibliothek","latitude":"48.78275","longitude":"9.17036"},{"item":"http://www.wikidata.org/entity/Q28737847","itemLabel":"Zentrum für Militärgeschichte und Sozialwissenschaften der Bundeswehr (ZMSBw), Bibliothek","latitude":"52.38469","longitude":"13.02383"},{"item":"http://www.wikidata.org/entity/Q28737909","itemLabel":"Vivantes Klinikum Hellersdorf, Fachbibliothek","latitude":"52.50744","longitude":"13.59218"},{"item":"http://www.wikidata.org/entity/Q28737835","itemLabel":"Deutscher Caritasverband e.V., Bibliothek","latitude":"48.00408","longitude":"7.85616"},{"item":"http://www.wikidata.org/entity/Q28737884","itemLabel":"Rehabilitationskrankenhaus, Bibliothek","latitude":"48.42447","longitude":"9.9446"},{"item":"http://www.wikidata.org/entity/Q28737767","itemLabel":"Benediktinerabtei St. Matthias, Bibliothek","latitude":"49.74048","longitude":"6.63241"},{"item":"http://www.wikidata.org/entity/Q28737904","itemLabel":"Bildungszentrum am Müggelsee GmbH, Bibliothek","latitude":"52.4428","longitude":"13.68111"},{"item":"http://www.wikidata.org/entity/Q28737908","itemLabel":"Bibliothek des Instituts für Hochschulforschung Halle-Wittenberg","latitude":"51.86481","longitude":"12.65024"},{"item":"http://www.wikidata.org/entity/Q28737827","itemLabel":"Landwirtschaftliches Technologie-Zentrum Augustenberg, Bibliothek","latitude":"49.00501","longitude":"8.49333"},{"item":"http://www.wikidata.org/entity/Q28737891","itemLabel":"Weierstraß-Institut für Angewandte Analysis und Stochastik im Forschungsverbund Berlin e.V., Bibliothek","latitude":"52.513","longitude":"13.39578"},{"item":"http://www.wikidata.org/entity/Q28737893","itemLabel":"Wissenschaftliche Spezialbibliothek Physik des Paul-Drude-Instituts für Festkörperelektronik","latitude":"52.513","longitude":"13.39578"},{"item":"http://www.wikidata.org/entity/Q28737816","itemLabel":"bibliothèque du lycée Albert-le-Grand de Rottweil","latitude":"48.16171","longitude":"8.62562"},{"item":"http://www.wikidata.org/entity/Q28737785","itemLabel":"Landesamt für Zentrale Dienste (LZD), Statistisches Amt Saarland, Bibliothek","latitude":"49.21858","longitude":"7.00827"},{"item":"http://www.wikidata.org/entity/Q28737745","itemLabel":"Verband der Deutschen Feuerfest-Industrie e.V., Bibliothek","latitude":"50.72375","longitude":"7.10857"},{"item":"http://www.wikidata.org/entity/Q28737742","itemLabel":"Sanitätsakademie der Bundeswehr, Fachinformationsstelle und Virtuelle Bibliothek","latitude":"48.20967","longitude":"11.58218"},{"item":"http://www.wikidata.org/entity/Q28737855","itemLabel":"Bibliothek der Micronas GmbH","latitude":"48.03461","longitude":"7.86018"},{"item":"http://www.wikidata.org/entity/Q28737802","itemLabel":"Deutsches Rechtswörterbuch, Bibliothek","latitude":"49.41194","longitude":"8.71295"},{"item":"http://www.wikidata.org/entity/Q28738028","itemLabel":"Klinikum Dorothea Christiane Erxleben Quedlinburg gGmbH, Fachbibliothek","latitude":"51.79492","longitude":"11.16353"},{"item":"http://www.wikidata.org/entity/Q28737948","itemLabel":"Vattenfall Europe Mining AG, Fachbibliothek","latitude":"51.51786","longitude":"14.02313"},{"item":"http://www.wikidata.org/entity/Q28738002","itemLabel":"Fachschule für Landwirtschaft Haldensleben, Bibliothek","latitude":"52.29047","longitude":"11.41355"},{"item":"http://www.wikidata.org/entity/Q28737990","itemLabel":"Fachkrankenhaus für Psychiatrie und Neurologie, Fachbibliothek","latitude":"52.50188","longitude":"12.03735"},{"item":"http://www.wikidata.org/entity/Q28738018","itemLabel":"Lungenklinik Lostau gGmbH, Wissenschaftliche Bibliothek","latitude":"52.21394","longitude":"11.73143"},{"item":"http://www.wikidata.org/entity/Q28738016","itemLabel":"Kulturhistorisches Museum und Museum für Naturkunde, Bibliothek","latitude":"52.12523","longitude":"11.63002"},{"item":"http://www.wikidata.org/entity/Q28737984","itemLabel":"Städtisches Klinikum Dessau, Akademisches Lehrkrankenhaus, Medizinische Fachbibliothek","latitude":"51.81556","longitude":"12.19771"},{"item":"http://www.wikidata.org/entity/Q28737988","itemLabel":"HELIOS Klinik Lutherstadt Eisleben, Medizinische Fachbibliothek","latitude":"51.52916","longitude":"11.54196"},{"item":"http://www.wikidata.org/entity/Q28738038","itemLabel":"Robert-Koch-Institut, Bibliothek Wernigerode","latitude":"51.83212","longitude":"10.78939"},{"item":"http://www.wikidata.org/entity/Q28738040","itemLabel":"Zentrum Informationsarbeit Bundeswehr, Bibliothek","latitude":"52.59498","longitude":"13.91452"},{"item":"http://www.wikidata.org/entity/Q28737929","itemLabel":"Naemi-Wilke-Stift, Bibliothek","latitude":"51.94636","longitude":"14.71651"},{"item":"http://www.wikidata.org/entity/Q28737911","itemLabel":"Senckenberg Deutsches Entomologisches Institut, Entomologische Bibliothek","latitude":"52.51161","longitude":"14.12025"},{"item":"http://www.wikidata.org/entity/Q28737977","itemLabel":"AMEOS Klinikum Bernburg, Fachbibliothek","latitude":"51.78226","longitude":"11.7361"},{"item":"http://www.wikidata.org/entity/Q28737940","itemLabel":"Brandenburgisches Landesamt für Denkmalpflege und Archäologisches Landesmuseum, Bibliothek","latitude":"52.17203","longitude":"13.4716"},{"item":"http://www.wikidata.org/entity/Q28737983","itemLabel":"Museum für Naturkunde und Vorgeschichte, Bibliothek","latitude":"51.83125","longitude":"12.24326"},{"item":"http://www.wikidata.org/entity/Q28738031","itemLabel":"Salus gGmbH, Fachkrankenhaus Uchtspringe, Bibliothek","latitude":"52.5333","longitude":"11.6167"},{"item":"http://www.wikidata.org/entity/Q28738004","itemLabel":"Sana Ohre-Klinikum, Fach- und Patientenbibliothek","latitude":"52.28566","longitude":"11.37642"},{"item":"http://www.wikidata.org/entity/Q28737932","itemLabel":"Asklepios Fachklinikum Lübben, Wissenschaftliche Bibliothek","latitude":"51.93572","longitude":"13.88672"},{"item":"http://www.wikidata.org/entity/Q28737920","itemLabel":"Kreiskrankenhaus, Medizinische Bibliothek","latitude":"51.68435","longitude":"13.20775"},{"item":"http://www.wikidata.org/entity/Q28737914","itemLabel":"Medizinische Fachbibliothek der Sana Kliniken Sommerfeld","latitude":"52.81276","longitude":"13.03647"},{"item":"http://www.wikidata.org/entity/Q28737934","itemLabel":"Ruppiner Kliniken GmbH, Zentralbibliothek","latitude":"52.90467","longitude":"12.79771"},{"item":"http://www.wikidata.org/entity/Q28737942","itemLabel":"Bibliothek der Abteilung Landwirtschaft und Gartenbau, Teltow","latitude":"52.37497","longitude":"13.26517"},{"item":"http://www.wikidata.org/entity/Q28737996","itemLabel":"Landesamt für Denkmalpflege und Archäologie Sachsen-Anhalt, Bibliothek","latitude":"51.48134","longitude":"11.97105"},{"item":"http://www.wikidata.org/entity/Q28738041","itemLabel":"HELIOS Klinikum Aue GmbH, Bibliothek","latitude":"50.59308","longitude":"12.71498"},{"item":"http://www.wikidata.org/entity/Q28738036","itemLabel":"Stiftung Luthergedenkstätten in Sachsen-Anhalt, Lutherhaus Wittenberg, Bibliothek","latitude":"51.86398","longitude":"12.65254"},{"item":"http://www.wikidata.org/entity/Q28737975","itemLabel":"Kreiskliniken Aschersleben-Staßfurt, Medizinische Fachbibliothek","latitude":"51.74589","longitude":"11.45898"},{"item":"http://www.wikidata.org/entity/Q28737991","itemLabel":"Académie national des sciences Leopoldina","latitude":"51.4889","longitude":"11.9705"},{"item":"http://www.wikidata.org/entity/Q28737956","itemLabel":"Dietrich-Bonhoeffer-Klinikum, Medizinische Fachbibliothek","latitude":"53.54534","longitude":"13.29454"},{"item":"http://www.wikidata.org/entity/Q28737966","itemLabel":"Landesamt für Kultur und Denkmalpflege Mecklenburg-Vorpommern, Landesarchäologie, Fachbibliothek","latitude":"53.73938","longitude":"11.43513"},{"item":"http://www.wikidata.org/entity/Q28737917","itemLabel":"Asklepios Fachklinikum Brandenburg, Wissenschaftliche Bibliothek","latitude":"52.42447","longitude":"12.47622"},{"item":"http://www.wikidata.org/entity/Q28737979","itemLabel":"SALUS gGMBH, Fachklinikum, Medizinische Fachbibliothek","latitude":"51.78632","longitude":"11.7289"},{"item":"http://www.wikidata.org/entity/Q28737924","itemLabel":"Klinikum Frankfurt/Oder GmbH, Wissenschaftliche Bibliothek","latitude":"52.30268","longitude":"14.48217"},{"item":"http://www.wikidata.org/entity/Q28737957","itemLabel":"Leibniz-Institut für Nutztierbiologie, Bibliothek","latitude":"54.01237","longitude":"12.22697"},{"item":"http://www.wikidata.org/entity/Q28737950","itemLabel":"Friedrich-Loeffler-Institut, Hauptbibliothek Insel Riems","latitude":"54.18364","longitude":"13.36238"},{"item":"http://www.wikidata.org/entity/Q28737931","itemLabel":"Julius Kühn-Institut, Bibliothek Kleinmachnow","latitude":"52.39631","longitude":"13.20786"},{"item":"http://www.wikidata.org/entity/Q28737918","itemLabel":"Krankenhaus Bernau GmbH, Evangelisch-Freikirchliches KH und Herzzentrum Brandenburg, Bibliothek","latitude":"52.7167","longitude":"13.6167"},{"item":"http://www.wikidata.org/entity/Q28737971","itemLabel":"Leibniz-Institut für Ostseeforschung Warnemünde, Bibliothek","latitude":"54.17967","longitude":"12.08172"},{"item":"http://www.wikidata.org/entity/Q28738030","itemLabel":"Maschinenfabrik Sangerhausen GmbH (SAMAG), Bibliothek","latitude":"51.47993","longitude":"11.31361"},{"item":"http://www.wikidata.org/entity/Q28738042","itemLabel":"Sorbische Zentralbibliothek","latitude":"51.17543","longitude":"14.42891"},{"item":"http://www.wikidata.org/entity/Q28737938","itemLabel":"Klinikum 'Ernst von Bergmann' gGmbH, Bibliothek","latitude":"52.40048","longitude":"13.06452"},{"item":"http://www.wikidata.org/entity/Q28737923","itemLabel":"ArcelorMittal Eisenhüttenstadt GmbH, Technische Bibliothek","latitude":"52.16381","longitude":"14.62904"},{"item":"http://www.wikidata.org/entity/Q28738015","itemLabel":"ÖHMI Aktiengesellschaft, Pflanzenölbibliothek","latitude":"52.1295","longitude":"11.67302"},{"item":"http://www.wikidata.org/entity/Q28737964","itemLabel":"Landeshygieneinstitut Rostock, Fachbibliothek","latitude":"54.08822","longitude":"12.1248"},{"item":"http://www.wikidata.org/entity/Q28738032","itemLabel":"Johanniter-Krankenhaus, Medizinische Fach- und Patientenbibliothek","latitude":"52.54412","longitude":"11.97846"},{"item":"http://www.wikidata.org/entity/Q28737915","itemLabel":"IHP GmbH for High Performance Microelectronics / Leibniz-Institut für innovative Mikroelektronik, Bibliothek","latitude":"52.31795","longitude":"14.49295"},{"item":"http://www.wikidata.org/entity/Q28738023","itemLabel":"Städtisches Klinikum, Zentrale Bibliothek","latitude":"52.1575","longitude":"11.58205"},{"item":"http://www.wikidata.org/entity/Q28737946","itemLabel":"Klinik Ernst von Bergmann Bad Belzig gGmbH, Fach- und Patientenbibliothek","latitude":"52.14029","longitude":"12.59834"},{"item":"http://www.wikidata.org/entity/Q28738021","itemLabel":"Landesamt für Verbraucherschutz, Fachbereich Hygiene, Fachbibliothek","latitude":"52.13595","longitude":"11.63973"},{"item":"http://www.wikidata.org/entity/Q28737982","itemLabel":"Institut für Brand- und Katastrophenschutz Sachsen-Anhalt, Wissenschaftliche Fachbibliothek","latitude":"52.13952","longitude":"11.73116"},{"item":"http://www.wikidata.org/entity/Q28737987","itemLabel":"Mansfeld-Museum","latitude":"51.62681","longitude":"11.51268"},{"item":"http://www.wikidata.org/entity/Q28737947","itemLabel":"Johanniter Krankenhaus im Fläming gGmbH, Medizinische Fach- und Patientenbibliothek","latitude":"52.1","longitude":"12.8667"},{"item":"http://www.wikidata.org/entity/Q28737953","itemLabel":"KMG Klinikum Güstrow, Medizinische Bibliothek","latitude":"53.81124","longitude":"12.19949"},{"item":"http://www.wikidata.org/entity/Q28738011","itemLabel":"WTZ Motoren- und Maschinenforschung Roßlau gGmbH, Fachbibliothek","latitude":"51.88662","longitude":"12.24612"},{"item":"http://www.wikidata.org/entity/Q28737959","itemLabel":"Fachinformationszentrum Fischerei und Bibliothek des Thünen-Instituts","latitude":"54.11113","longitude":"12.09022"},{"item":"http://www.wikidata.org/entity/Q28738035","itemLabel":"Altmark-Klinikum gGmbH, Krankenhaus Salzwedel, Wissenschaftliche Bibliothek","latitude":"52.85608","longitude":"11.14525"},{"item":"http://www.wikidata.org/entity/Q28738012","itemLabel":"Institut für Lacke und Farben e.V., Bibliothek","latitude":"52.11613","longitude":"11.5957"},{"item":"http://www.wikidata.org/entity/Q28738022","itemLabel":"Leibniz-Institut für Neurobiologie, Wissenschaftliche Bibliothek","latitude":"52.10388","longitude":"11.59451"},{"item":"http://www.wikidata.org/entity/Q28737993","itemLabel":"Landesamt für Denkmalpflege und Archäologie, Sachsen-Anhalt, Landesmuseum für Vorgeschichte, Bibliothek","latitude":"51.49818","longitude":"11.96241"},{"item":"http://www.wikidata.org/entity/Q28737955","itemLabel":"Asklepios Klinik Pasewalk, Medizinische Fachbibliothek und Patientenbibliothek","latitude":"53.48945","longitude":"13.98574"},{"item":"http://www.wikidata.org/entity/Q28738000","itemLabel":"Landesamt für Geologie und Bergwesen Sachsen-Anhalt, Fachbibliothek","latitude":"51.52732","longitude":"11.95656"},{"item":"http://www.wikidata.org/entity/Q28738020","itemLabel":"Landespflanzenschutzamt Sachsen-Anhalt, Bibliothek","latitude":"52.16264","longitude":"11.60836"},{"item":"http://www.wikidata.org/entity/Q28738043","itemLabel":"Medizinische Fachbibliothek des Fachkrankenhauses Coswig","latitude":"51.13125","longitude":"13.59412"},{"item":"http://www.wikidata.org/entity/Q28737936","itemLabel":"Deutsches Institut für Ernährungsforschung (DIfE) Potsdam-Rehbrücke, Bibliothek","latitude":"52.34843","longitude":"13.10578"},{"item":"http://www.wikidata.org/entity/Q28737922","itemLabel":"Klinikum Barnim GmbH, Werner-Forßmann-Krankenhaus, Medizinische Fachbibliothek","latitude":"52.82837","longitude":"13.79017"},{"item":"http://www.wikidata.org/entity/Q28737970","itemLabel":"Hanse-Klinikum Stralsund GmbH, Wissenschaftliche Bibliothek / Patientenbibliothek","latitude":"54.32875","longitude":"13.08063"},{"item":"http://www.wikidata.org/entity/Q28737981","itemLabel":"HELIOS Klinik Jerichower Land, Zentralbibliothek","latitude":"52.26459","longitude":"11.82644"},{"item":"http://www.wikidata.org/entity/Q28737930","itemLabel":"Lausitzer Seenland Klinikum GmbH, Wissenschaftliche Bibliothek","latitude":"51.4378","longitude":"14.2492"},{"item":"http://www.wikidata.org/entity/Q28737949","itemLabel":"Spremberger Krankenhausgesellschaft mbH, Bibliothek","latitude":"51.5632","longitude":"14.37356"},{"item":"http://www.wikidata.org/entity/Q28738017","itemLabel":"Kreiskrankenhaus Oschersleben, Fach- und Patientenbibliothek","latitude":"52.0833","longitude":"10.9833"},{"item":"http://www.wikidata.org/entity/Q28738037","itemLabel":"Paul Gerhardt Diakonie Krankenhaus u. Pflege GmbH, Medizinische Fachbibliothek","latitude":"51.87024","longitude":"12.65467"},{"item":"http://www.wikidata.org/entity/Q28737997","itemLabel":"Stiftung Moritzburg, Kunstmuseum des Landes Sachsen-Anhalt, Bibliothek","latitude":"51.48632","longitude":"11.96328"},{"item":"http://www.wikidata.org/entity/Q28737965","itemLabel":"Inros Lackner AG, Fachbibliothek","latitude":"54.08035","longitude":"12.13708"},{"item":"http://www.wikidata.org/entity/Q28737974","itemLabel":"Sana Hanse-Klinikum Wismar GmbH, Medizinische Fachbibliothek","latitude":"53.88458","longitude":"11.43846"},{"item":"http://www.wikidata.org/entity/Q28737937","itemLabel":"IGV Institut für Getreideverarbeitung GmbH, Bibliothek","latitude":"52.35291","longitude":"13.10317"},{"item":"http://www.wikidata.org/entity/Q28737944","itemLabel":"Brandenburgisches Landesinstitut für Rechtsmedizin, Bibliothek","latitude":"52.40934","longitude":"13.01218"},{"item":"http://www.wikidata.org/entity/Q28738019","itemLabel":"Landeskirchenamt Magdeburg, Bibliothek","latitude":"52.12397","longitude":"11.63468"},{"item":"http://www.wikidata.org/entity/Q28737952","itemLabel":"Institut für Niedertemperatur-Plasmaphysik e.V. (INP), Bibliothek","latitude":"54.09196","longitude":"13.40194"},{"item":"http://www.wikidata.org/entity/Q28737939","itemLabel":"LAS - Landesamt für Arbeitsschutz, Bibliothek","latitude":"52.3812","longitude":"13.08726"},{"item":"http://www.wikidata.org/entity/Q28737921","itemLabel":"Martin Gropius Krankenhaus GmbH, Wissenschaftliche Bibliothek","latitude":"52.84533","longitude":"13.82852"},{"item":"http://www.wikidata.org/entity/Q28738010","itemLabel":"Kunstmuseum Kloster Unser Lieben Frauen, Bibliothek","latitude":"52.1275","longitude":"11.63695"},{"item":"http://www.wikidata.org/entity/Q28737925","itemLabel":"Kleist-Museum im Kleist-Gedenk- und Forschungsstätte e.V., Bibliothek","latitude":"52.34349","longitude":"14.55727"},{"item":"http://www.wikidata.org/entity/Q28738039","itemLabel":"MEDIGREIF Krankenhaus Anhalt-Zerbst gGmbH, Bibliothek","latitude":"51.96107","longitude":"12.09336"},{"item":"http://www.wikidata.org/entity/Q28737935","itemLabel":"Asklepios-Klinik, Medizinische Fachbibliothek","latitude":"52.69119","longitude":"13.29801"},{"item":"http://www.wikidata.org/entity/Q28738025","itemLabel":"Julius Kühn-Institut, Informationszentrum und Bibliothek Quedlinburg","latitude":"51.77271","longitude":"11.14122"},{"item":"http://www.wikidata.org/entity/Q28738001","itemLabel":"AMEOS Klinikum Haldensleben, Bereich Psychiatrie, Wissenschaftliche Bibliothek","latitude":"52.28636","longitude":"11.37647"},{"item":"http://www.wikidata.org/entity/Q28737941","itemLabel":"Landesinstitut für Schule und Medien Berlin-Brandenburg, Bibliothek","latitude":"52.32094","longitude":"13.23056"},{"item":"http://www.wikidata.org/entity/Q28738007","itemLabel":"Gleimhaus - Museum der deutschen Aufklärung, Bibliothek","latitude":"51.89601","longitude":"11.04743"},{"item":"http://www.wikidata.org/entity/Q28737995","itemLabel":"Stiftung Händel-Haus, Bibliothek","latitude":"51.48409","longitude":"11.96732"},{"item":"http://www.wikidata.org/entity/Q28737933","itemLabel":"Leibniz-Zentrum für Agrarlandschaftsforschung (ZALF) e. V., Zentralbibliothek","latitude":"52.51588","longitude":"14.11297"},{"item":"http://www.wikidata.org/entity/Q28737926","itemLabel":"Leibniz-Institut für Gemüse- und Zierpflanzenbau Großbeeren/Erfurt e.V., Fachbibliothek","latitude":"52.34824","longitude":"13.30978"},{"item":"http://www.wikidata.org/entity/Q28737998","itemLabel":"Landeshygieneinstitut Halle, Bibliothek","latitude":"51.5015","longitude":"11.95487"},{"item":"http://www.wikidata.org/entity/Q28737919","itemLabel":"Landesamt für Arbeitsschutz, Regionalbereich Süd, Bibliothek","latitude":"51.74176","longitude":"14.32363"},{"item":"http://www.wikidata.org/entity/Q28737961","itemLabel":"DRK-Blutspendedienst Mecklenburg-Vorpommern gGmbH, Institut für Transfusionsmedizin Rostock, Bibliothek","latitude":"54.07116","longitude":"12.1107"},{"item":"http://www.wikidata.org/entity/Q28738008","itemLabel":"AMEOS Klinikum St. Salvator Halberstadt, Bibliothek","latitude":"51.90131","longitude":"11.05432"},{"item":"http://www.wikidata.org/entity/Q28737912","itemLabel":"Leibniz-Institut für Astrophysik Potsdam (AIP), Bibliothek","latitude":"52.40449","longitude":"13.10229"},{"item":"http://www.wikidata.org/entity/Q28737968","itemLabel":"Landesamt für Gesundheit und Soziales Mecklenburg-Vorpommern, Zentralbibliothek","latitude":"53.6043","longitude":"11.43218"},{"item":"http://www.wikidata.org/entity/Q28738026","itemLabel":"Krankenhaus Ballenstedt, Medizinische Fachbibliothek","latitude":"51.71281","longitude":"11.22708"},{"item":"http://www.wikidata.org/entity/Q28737916","itemLabel":"Länderinstitut für Bienenkunde Hohen Neuendorf e.V., Bibliothek","latitude":"52.6751","longitude":"13.26848"},{"item":"http://www.wikidata.org/entity/Q28738024","itemLabel":"Carl-von-Basedow-Klinikum Saalekreis GmbH, Medizinische Fachbibliothek","latitude":"51.36643","longitude":"11.99349"},{"item":"http://www.wikidata.org/entity/Q28737994","itemLabel":"Leibniz-Institut für Pflanzenbiochemie, Bibliothek","latitude":"51.49643","longitude":"11.94409"},{"item":"http://www.wikidata.org/entity/Q28727622","itemLabel":"Bibliothek des Fraunhofer-Instituts für Verkehrs- und Infrastruktursysteme","latitude":"51.02714","longitude":"13.73645"},{"item":"http://www.wikidata.org/entity/Q28727662","itemLabel":"Bibliothek des Fraunhofer-Instituts für Integrierte Schaltungen (IIS), Institutsteil Entwurfsautomatisierung","latitude":"51.02714","longitude":"13.73645"},{"item":"http://www.wikidata.org/entity/Q28681706","itemLabel":"Konrad-Duden-Stadtbibliothek","latitude":"50.86802","longitude":"9.70544"},{"item":"http://www.wikidata.org/entity/Q28681605","itemLabel":"Brigitte-Reimann-Stadtbibliothek","latitude":"51.43626","longitude":"14.25672"},{"item":"http://www.wikidata.org/entity/Q28657233","itemLabel":"Deutsche Nationalbibliothek Leipzig","latitude":"51.32242","longitude":"12.39613"},{"item":"http://www.wikidata.org/entity/Q28729243","itemLabel":"Gemeindebibliothek Holzwickede","latitude":"51.49695","longitude":"7.62608"},{"item":"http://www.wikidata.org/entity/Q28719793","itemLabel":"Stadtarchiv und Stadthistorische Bibliothek Bonn","latitude":"50.73721","longitude":"7.09484"},{"item":"http://www.wikidata.org/entity/Q28661796","itemLabel":"Stadtbücherei, Forum Niederberg","latitude":"51.34172","longitude":"7.04708"},{"item":"http://www.wikidata.org/entity/Q28729248","itemLabel":"Schul- und Samtgemeindebücherei Tarmstedt","latitude":"53.23179","longitude":"9.08511"},{"item":"http://www.wikidata.org/entity/Q28727614","itemLabel":"Bibliothek des Fraunhofer-Instituts für Solare Energiesysteme","latitude":"48.00919","longitude":"7.83462"},{"item":"http://www.wikidata.org/entity/Q28720152","itemLabel":"Bibliothek der Max-Planck-Institute Stuttgart","latitude":"48.74663","longitude":"9.08159"},{"item":"http://www.wikidata.org/entity/Q28719794","itemLabel":"Stadtarchiv und Landesgeschichtliche Bibliothek Bielefeld","latitude":"52.0267","longitude":"8.53686"},{"item":"http://www.wikidata.org/entity/Q28662469","itemLabel":"Stadtbücherei Esslingen am Neckar","latitude":"48.74241","longitude":"9.30895"},{"item":"http://www.wikidata.org/entity/Q28681441","itemLabel":"Kreis- und Stadtbibliothek am Maximilian-von-Montgelas-Gymnasium Vilsbiburg","latitude":"48.45735","longitude":"12.36194"},{"item":"http://www.wikidata.org/entity/Q28729239","itemLabel":"Gemeindebücherei Rastede","latitude":"53.24845","longitude":"8.19848"},{"item":"http://www.wikidata.org/entity/Q28727631","itemLabel":"Bibliothek des Fraunhofer-Instituts für Mikroelektronische Schaltungen und Systeme","latitude":"51.4285","longitude":"6.79725"},{"item":"http://www.wikidata.org/entity/Q27926646","itemLabel":"Humboldt-Bibliothek","latitude":"52.5919","longitude":"13.2808"},{"item":"http://www.wikidata.org/entity/Q28727617","itemLabel":"Bibliothek des Fraunhofer-Instituts für Werkzeugmaschinen und Umformtechnik","latitude":"50.8136","longitude":"12.92599"},{"item":"http://www.wikidata.org/entity/Q28729266","itemLabel":"Samtgemeindebücherei Schwarmstedt","latitude":"52.67682","longitude":"9.61808"},{"item":"http://www.wikidata.org/entity/Q28681493","itemLabel":"Kupferschmiede Beeskow e.V., Stadtbibliothek","latitude":"52.17315","longitude":"14.24819"},{"item":"http://www.wikidata.org/entity/Q28729234","itemLabel":"Gemeindebücherei Quierschied","latitude":"49.32523","longitude":"7.05301"},{"item":"http://www.wikidata.org/entity/Q28729257","itemLabel":"Gemeindebücherei Niestetal","latitude":"51.31467","longitude":"9.5552"},{"item":"http://www.wikidata.org/entity/Q28727612","itemLabel":"Bibliothek des Fraunhofer-Instituts für Physikalische Messtechnik","latitude":"48.01046","longitude":"7.83489"},{"item":"http://www.wikidata.org/entity/Q28719788","itemLabel":"Wissenschaftliche Bibliothek zur Regionalgeschichte im Stadtarchiv Siegen","latitude":"50.87493","longitude":"8.02463"},{"item":"http://www.wikidata.org/entity/Q28681533","itemLabel":"Kreis- und Stadtbibliothek Dingolfing","latitude":"48.62936","longitude":"12.49887"},{"item":"http://www.wikidata.org/entity/Q28720108","itemLabel":"Wissenschaftliche Bibliothek des Max-Planck-Instituts für Gravitationsphysik, Albert-Einstein-Institut","latitude":"52.41635","longitude":"12.97011"},{"item":"http://www.wikidata.org/entity/Q28727665","itemLabel":"Bibliothek des Fraunhofer-Instituts für Offene Kommunikationssysteme FOKUS","latitude":"52.52596","longitude":"13.31442"},{"item":"http://www.wikidata.org/entity/Q28729241","itemLabel":"Gemeindebücherei Stelle","latitude":"53.38039","longitude":"10.11205"},{"item":"http://www.wikidata.org/entity/Q28729250","itemLabel":"Gemeindebücherei Bönen","latitude":"51.60163","longitude":"7.76203"},{"item":"http://www.wikidata.org/entity/Q28727658","itemLabel":"Bibliothek des Fraunhofer-Instituts für Silicatforschung ISC","latitude":"49.79772","longitude":"9.91893"},{"item":"http://www.wikidata.org/entity/Q28662343","itemLabel":"Katholische Pfarr- und Stadtbücherei St. Justina","latitude":"48.00423","longitude":"10.59526"},{"item":"http://www.wikidata.org/entity/Q28657803","itemLabel":"Stadtbüchereien Hamm","latitude":"51.67861","longitude":"7.81033"},{"item":"http://www.wikidata.org/entity/Q28729253","itemLabel":"Gemeindebücherei Hambühren","latitude":"52.63179","longitude":"9.94317"},{"item":"http://www.wikidata.org/entity/Q28727595","itemLabel":"Bibliothek des Fraunhofer-Instituts für Holzforschung, Wilhelm-Klauditz-Institut (WKI)","latitude":"52.29379","longitude":"10.54011"},{"item":"http://www.wikidata.org/entity/Q28608401","itemLabel":"Bibliothèque des archives de la ville de Lübeck","latitude":"53.86052","longitude":"10.68505"},{"item":"http://www.wikidata.org/entity/Q28662229","itemLabel":"Literaturhaus Allgäu, Stadtbücherei","latitude":"47.55947","longitude":"10.21762"},{"item":"http://www.wikidata.org/entity/Q28727654","itemLabel":"Bibliothek des Fraunhofer-Instituts für Optronik, Systemtechnik und Bildauswertung, Standort Ettlingen","latitude":"48.94732","longitude":"8.41133"},{"item":"http://www.wikidata.org/entity/Q28681747","itemLabel":"die insel - Stadtbibliothek","latitude":"51.65341","longitude":"7.09644"},{"item":"http://www.wikidata.org/entity/Q28681612","itemLabel":"Stadtarchiv und Stadtbibliothek Schweinfurt","latitude":"50.04607","longitude":"10.23177"},{"item":"http://www.wikidata.org/entity/Q28720024","itemLabel":"Karl-Thomas-Bibliothek des Max-Planck-Instituts für experimentelle Medizin","latitude":"51.55106","longitude":"9.93731"},{"item":"http://www.wikidata.org/entity/Q28662070","itemLabel":"Kreis- und Stadtbücherei Weilburg","latitude":"50.484","longitude":"8.25976"},{"item":"http://www.wikidata.org/entity/Q28657237","itemLabel":"Deutsche Nationalbibliothek Frankfurt am Main","latitude":"50.13129","longitude":"8.68314"},{"item":"http://www.wikidata.org/entity/Q28684733","itemLabel":"Stadtbibliothek Mosbach","latitude":"49.35325","longitude":"9.14584"},{"item":"http://www.wikidata.org/entity/Q28727635","itemLabel":"Bibliothek des Fraunhofer-Instituts für Betriebsfestigkeit und Systemzuverlässigkeit LBF","latitude":"49.90361","longitude":"8.68222"},{"item":"http://www.wikidata.org/entity/Q28681470","itemLabel":"Stadtbibliotheken der Landeshauptstadt Wiesbaden","latitude":"50.082","longitude":"8.23989"},{"item":"http://www.wikidata.org/entity/Q28727625","itemLabel":"Bibliothek des Fraunhofer-Instituts für Keramische Technologien und Systeme (IKTS), Institutsteil Hermsdorf","latitude":"50.89592","longitude":"11.84619"},{"item":"http://www.wikidata.org/entity/Q28729254","itemLabel":"Samtgemeindebücherei Hollenstedt","latitude":"53.3672","longitude":"9.71758"},{"item":"http://www.wikidata.org/entity/Q28727629","itemLabel":"Bibliothek des Fraunhofer-Instituts für Rechnerarchitektur und Softwaretechnik (FIRST)","latitude":"52.42913","longitude":"13.5315"},{"item":"http://www.wikidata.org/entity/Q28729244","itemLabel":"Gemeindebücherei Ottersberg","latitude":"53.11072","longitude":"9.13811"},{"item":"http://www.wikidata.org/entity/Q28729264","itemLabel":"Samtgemeindebibliothek Harpstedt","latitude":"52.9047","longitude":"8.58881"},{"item":"http://www.wikidata.org/entity/Q28729229","itemLabel":"Gemeindebücherei Lindlar","latitude":"51.02045","longitude":"7.3766"},{"item":"http://www.wikidata.org/entity/Q28727609","itemLabel":"Bibliothek des Fraunhofer-Instituts für Angewandte Festkörperphysik","latitude":"48.02744","longitude":"7.84499"},{"item":"http://www.wikidata.org/entity/Q28681463","itemLabel":"Stadtbibliothek, Katholische Öffentliche Bibliothek Pappenburg","latitude":"53.07781","longitude":"7.39616"},{"item":"http://www.wikidata.org/entity/Q28727601","itemLabel":"Bibliothek des Fraunhofer-Instituts für Arbeitswirtschaft und Organisation (IAO)","latitude":"48.7412","longitude":"9.09584"},{"item":"http://www.wikidata.org/entity/Q28729267","itemLabel":"Gemeindebücherei Hesel","latitude":"53.30663","longitude":"7.58786"},{"item":"http://www.wikidata.org/entity/Q28729260","itemLabel":"Gemeindebücherei Ganderkesee","latitude":"53.03538","longitude":"8.54103"},{"item":"http://www.wikidata.org/entity/Q28727667","itemLabel":"Bibliothek des Fraunhofer-Instituts für Molekularbiologie und Angewandte Oekologie","latitude":"51.15078","longitude":"8.31158"},{"item":"http://www.wikidata.org/entity/Q28662092","itemLabel":"Weitzelbücherei, Kreis- und Stadtbücherei","latitude":"50.34766","longitude":"9.52316"},{"item":"http://www.wikidata.org/entity/Q28729246","itemLabel":"Gemeindebücherei Grasberg","latitude":"53.18172","longitude":"8.9857"},{"item":"http://www.wikidata.org/entity/Q27116065","itemLabel":"Robbe & Berking Yachting Heritage Centre","latitude":"54.80012","longitude":"9.43798"},{"item":"http://www.wikidata.org/entity/Q28727661","itemLabel":"Bibliothek des Fraunhofer-Instituts für Photonische Mikrosysteme","latitude":"51.12525","longitude":"13.7841"},{"item":"http://www.wikidata.org/entity/Q28681839","itemLabel":"Kreis- und Stadtbibliothek Osterholz-Scharmbeck","latitude":"53.22489","longitude":"8.79661"},{"item":"http://www.wikidata.org/entity/Q28661804","itemLabel":"Thomas-Valentin-Stadtbücherei","latitude":"51.67383","longitude":"8.34635"},{"item":"http://www.wikidata.org/entity/Q28727666","itemLabel":"Bibliothek des Fraunhofer-Instituts für Zelltherapie und Immunologie","latitude":"51.31875","longitude":"12.39545"},{"item":"http://www.wikidata.org/entity/Q28662361","itemLabel":"Pfarr- und Stadtbücherei Viechtach","latitude":"49.07607","longitude":"12.88898"},{"item":"http://www.wikidata.org/entity/Q28729261","itemLabel":"Gemeindebibliothek Sande","latitude":"53.50082","longitude":"8.01372"},{"item":"http://www.wikidata.org/entity/Q28657184","itemLabel":"Bezirkszentralbibliothek Philipp Schaeffer","latitude":"52.53169","longitude":"13.3992"},{"item":"http://www.wikidata.org/entity/Q28720026","itemLabel":"Zentrale Einrichtung 'Bibliothek und Wissenschaftliche Informationsdienste' des Max-Planck-Instituts für molekulare Physiologie","latitude":"51.48937","longitude":"7.40954"},{"item":"http://www.wikidata.org/entity/Q28661928","itemLabel":"Medienzentrum, Stadtbücherei und Bildstelle Northeim","latitude":"51.70653","longitude":"9.99527"},{"item":"http://www.wikidata.org/entity/Q28720210","itemLabel":"Stadtarchiv Stendal","latitude":"52.60367","longitude":"11.85624"},{"item":"http://www.wikidata.org/entity/Q28729226","itemLabel":"Gemeindebibliothek Eitorf","latitude":"50.77097","longitude":"7.45533"},{"item":"http://www.wikidata.org/entity/Q28727648","itemLabel":"Bibliothek des Fraunhofer-Instituts für Verfahrenstechnik und Verpackung","latitude":"48.39404","longitude":"11.70959"},{"item":"http://www.wikidata.org/entity/Q28681426","itemLabel":"Anna-Seghers-Bibliothek","latitude":"52.56441","longitude":"13.5062"},{"item":"http://www.wikidata.org/entity/Q28681669","itemLabel":"RW21 Stadtbibliothek Bayreuth","latitude":"49.94284","longitude":"11.58061"},{"item":"http://www.wikidata.org/entity/Q28720068","itemLabel":"Bibliothek des Archivs der Max-Planck-Gesellschaft","latitude":"52.44679","longitude":"13.27785"},{"item":"http://www.wikidata.org/entity/Q28681496","itemLabel":"Heinrich-Mann-Bibliothek / Stadtbibliothek Strausberg","latitude":"52.58076","longitude":"13.87994"},{"item":"http://www.wikidata.org/entity/Q28719813","itemLabel":"Ratsbibliothek beim Stadtarchiv Schwäbisch Hall","latitude":"49.11249","longitude":"9.73684"},{"item":"http://www.wikidata.org/entity/Q28720141","itemLabel":"Bibliothek der Max-Planck-Institute Martinsried","latitude":"48.10565","longitude":"11.45833"},{"item":"http://www.wikidata.org/entity/Q28729228","itemLabel":"Gemeindebibliothek Elsenfeld","latitude":"49.84598","longitude":"9.16092"},{"item":"http://www.wikidata.org/entity/Q25474423","itemLabel":"Rathaus Hildburghausen","latitude":"50.425961","longitude":"10.729943"},{"item":"http://www.wikidata.org/entity/Q28226798","itemLabel":"Diözesanbibliothek Würzburg","latitude":"49.79094","longitude":"9.93444"},{"item":"http://www.wikidata.org/entity/Q28681735","itemLabel":"Stadtarchiv, Stadtbibliothek Fürth","latitude":"49.48598","longitude":"10.92741"},{"item":"http://www.wikidata.org/entity/Q28662124","itemLabel":"Ökumenische Stadtbücherei Betzdorf","latitude":"50.78917","longitude":"7.87351"},{"item":"http://www.wikidata.org/entity/Q28729236","itemLabel":"Gemeindebibliothek Wedemark, Ausleihstelle Bissendorf","latitude":"52.52324","longitude":"9.75659"},{"item":"http://www.wikidata.org/entity/Q28681612","itemLabel":"Stadtarchiv und Stadtbibliothek Schweinfurt","latitude":"50.045941","longitude":"10.232052"},{"item":"http://www.wikidata.org/entity/Q28727610","itemLabel":"Bibliothek des Fraunhofer-Instituts für Werkstoffmechanik","latitude":"48.03379","longitude":"7.85214"},{"item":"http://www.wikidata.org/entity/Q28729232","itemLabel":"Gemeindebibliothek Steinhagen","latitude":"52.00704","longitude":"8.41798"},{"item":"http://www.wikidata.org/entity/Q28729238","itemLabel":"Gemeindebücherei Obersulm","latitude":"49.13286","longitude":"9.37771"},{"item":"http://www.wikidata.org/entity/Q28727605","itemLabel":"Bibliothek des Fraunhofer-Instituts für Kurzzeitdynamik, Ernst-Mach-Institut","latitude":"48.00094","longitude":"7.84664"},{"item":"http://www.wikidata.org/entity/Q28367398","itemLabel":"Neue Stadtbibliothek Heidenheim","latitude":"48.67649","longitude":"10.15147"},{"item":"http://www.wikidata.org/entity/Q28720011","itemLabel":"Bibliothek des Fritz-Haber-Instituts der Max-Planck-Gesellschaft","latitude":"52.44943","longitude":"13.28269"},{"item":"http://www.wikidata.org/entity/Q28657105","itemLabel":"Bibliothek des Gymnasiums am Kaiserdom Speyer","latitude":"49.31508","longitude":"8.44024"},{"item":"http://www.wikidata.org/entity/Q28656905","itemLabel":"Landesbüchereistelle Neustadt","latitude":"49.35396","longitude":"8.13148"},{"item":"http://www.wikidata.org/entity/Q28681468","itemLabel":"Stadtarchiv und wissenschaftliche Stadtbibliothek Soest","latitude":"51.57006","longitude":"8.10677"},{"item":"http://www.wikidata.org/entity/Q28719787","itemLabel":"Wissenschaftliche Spezialbibliothek Stadtarchiv und Museen Villingen-Schwenningen","latitude":"48.05249","longitude":"8.46525"},{"item":"http://www.wikidata.org/entity/Q28661941","itemLabel":"SchulStadtBücherei Arnsberg","latitude":"51.39212","longitude":"8.06459"},{"item":"http://www.wikidata.org/entity/Q28727604","itemLabel":"Bibliothek des Fraunhofer-Instituts für Bauphysik","latitude":"48.74064","longitude":"9.09825"},{"item":"http://www.wikidata.org/entity/Q28727652","itemLabel":"Bibliothek des Fraunhofer-Informationszentrum Raum und Bau IRB","latitude":"48.74064","longitude":"9.09825"},{"item":"http://www.wikidata.org/entity/Q28727597","itemLabel":"Bibliothek des Fraunhofer-Instituts für Produktionstechnik und Automatisierung","latitude":"48.74021","longitude":"9.09607"},{"item":"http://www.wikidata.org/entity/Q28720020","itemLabel":"Otto-Hahn-Bibliothek des Max-Planck-Instituts für biophysikalische Chemie","latitude":"51.56136","longitude":"9.96733"},{"item":"http://www.wikidata.org/entity/Q28738056","itemLabel":"Linde Engineering Dresden GmbH, Bibliothek","latitude":"51.02775","longitude":"13.79549"},{"item":"http://www.wikidata.org/entity/Q28738076","itemLabel":"Erzgebirgsklinikum gGmbH, Medizinische Fachbibliothek","latitude":"50.5921","longitude":"13.00675"},{"item":"http://www.wikidata.org/entity/Q28738057","itemLabel":"Verkehrsmuseum Dresden gGmbH, Wissenschaftliche Fachbibliothek","latitude":"51.05245","longitude":"13.73962"},{"item":"http://www.wikidata.org/entity/Q28738126","itemLabel":"Kreiskrankenhaus Worbis in Reifenstein, Fachbibliothek","latitude":"51.35","longitude":"10.4667"},{"item":"http://www.wikidata.org/entity/Q28738069","itemLabel":"Kreiskrankenhaus Freiberg, Medizinische Fachbibliothek","latitude":"50.92121","longitude":"13.3502"},{"item":"http://www.wikidata.org/entity/Q28738261","itemLabel":"Amt für Statistik Berlin-Brandenburg, Bibliothek","latitude":"52.50819","longitude":"13.52577"},{"item":"http://www.wikidata.org/entity/Q28738053","itemLabel":"IPF","latitude":"51.0418","longitude":"13.72412"},{"item":"http://www.wikidata.org/entity/Q28738061","itemLabel":"Städtisches Klinikum Dresden-Neustadt, Medizinische Bibliothek","latitude":"51.08993","longitude":"13.70904"},{"item":"http://www.wikidata.org/entity/Q28738178","itemLabel":"ThüringenForst - Anstalt öffentlichen Rechts, Service- und Kompetenzzentrum, Wissenschaftliche Bibliothek","latitude":"50.9437","longitude":"10.70911"},{"item":"http://www.wikidata.org/entity/Q28738171","itemLabel":"Institut für Photonische Technologien e.V., Bibliothek","latitude":"50.90899","longitude":"11.56655"},{"item":"http://www.wikidata.org/entity/Q28738130","itemLabel":"Stiftung Deutsches Gartenbaumuseum Erfurt, Bibliothek","latitude":"50.96761","longitude":"11.00771"},{"item":"http://www.wikidata.org/entity/Q28738090","itemLabel":"Park-Krankenhaus Leipzig, Medizinische Fachbibliothek Psychiatrische Kliniken","latitude":"51.30548","longitude":"12.44214"},{"item":"http://www.wikidata.org/entity/Q28738138","itemLabel":"Waldkrankenhaus 'Rudolf Elle' gGmbH, Medizinische Fachbibliothek","latitude":"50.957","longitude":"11.88383"},{"item":"http://www.wikidata.org/entity/Q28738093","itemLabel":"Fachkrankenhaus Hubertusburg gGmbH, Zentralbibliothek","latitude":"51.27759","longitude":"12.93859"},{"item":"http://www.wikidata.org/entity/Q28738077","itemLabel":"IPROPLAN Planungsgesellschaft mbH, Technische Bibliothek","latitude":"50.82946","longitude":"12.94632"},{"item":"http://www.wikidata.org/entity/Q28738251","itemLabel":"Thüringer Landesanstalt für Umwelt und Geologie, Staatliche Vogelschutzwarte Seebach, Bibliothek","latitude":"51.15","longitude":"10.5833"},{"item":"http://www.wikidata.org/entity/Q28738101","itemLabel":"DRK-Blutspendedienst Sachsen gGmbH, Institut für Transfusionsmedizin Plauen, Medizinische Fachbibliothek","latitude":"50.48964","longitude":"12.15362"},{"item":"http://www.wikidata.org/entity/Q28738161","itemLabel":"Museum Reichenfels, Bibliothek","latitude":"50.70809","longitude":"12.04204"},{"item":"http://www.wikidata.org/entity/Q28738189","itemLabel":"HGN Hydrogeologie GmbH, wissenschaftliche Fachbibliothek","latitude":"51.50088","longitude":"10.78816"},{"item":"http://www.wikidata.org/entity/Q28738102","itemLabel":"Paracelsus-Klinik Reichenbach, Medizinische Fachbibliothek","latitude":"50.61365","longitude":"12.30934"},{"item":"http://www.wikidata.org/entity/Q28738174","itemLabel":"Friedrich-Loeffler-Institut, Bibliothek Jena","latitude":"50.95388","longitude":"11.61539"},{"item":"http://www.wikidata.org/entity/Q28738221","itemLabel":"Institut für Transfusionsmedizin Suhl gGmbH, Bibliothek","latitude":"50.60364","longitude":"10.70977"},{"item":"http://www.wikidata.org/entity/Q28738099","itemLabel":"Staatsbetrieb Sachsenforst, Bibliothek","latitude":"51.00307","longitude":"13.92853"},{"item":"http://www.wikidata.org/entity/Q28738080","itemLabel":"Pleissental-Klinik GmbH, Medizinische Fachbibliothek","latitude":"50.73983","longitude":"12.37593"},{"item":"http://www.wikidata.org/entity/Q28738064","itemLabel":"Sächsisches Landesamt für Umwelt, Landwirtschaft und Geologie, Bibliothek Pillnitz","latitude":"51.00837","longitude":"13.87352"},{"item":"http://www.wikidata.org/entity/Q28738158","itemLabel":"Kreiskrankenhaus Greiz GmbH, Fachbibliothek","latitude":"50.66158","longitude":"12.19818"},{"item":"http://www.wikidata.org/entity/Q28738098","itemLabel":"Bibliothek der Stahl- und Brückenbau Niesky GmbH","latitude":"51.29811","longitude":"14.82319"},{"item":"http://www.wikidata.org/entity/Q28738083","itemLabel":"Helmholtz-Zentrum für Umweltforschung GmbH - UFZ, Bibliothek","latitude":"51.35218","longitude":"12.42895"},{"item":"http://www.wikidata.org/entity/Q28738155","itemLabel":"Staatliche Bücher- und Kupferstichsammlung Greiz, Stiftung der Älteren Linie des Hauses Reuß, Bibliothek","latitude":"50.65772","longitude":"12.19221"},{"item":"http://www.wikidata.org/entity/Q28738277","itemLabel":"WHU - Otto Beisheim School of Management, Bibliothek","latitude":"50.40017","longitude":"7.61382"},{"item":"http://www.wikidata.org/entity/Q28738266","itemLabel":"Berlin, Bezirksamt Tempelhof-Schöneberg, Verwaltungsbücherei","latitude":"52.48492","longitude":"13.34463"},{"item":"http://www.wikidata.org/entity/Q28738045","itemLabel":"Stiftung Deutsches Hygiene-Museum, Bibliothek","latitude":"51.04447","longitude":"13.74755"},{"item":"http://www.wikidata.org/entity/Q28738135","itemLabel":"St. Georg Klinikum Eisenach GmbH, Medizinische Fachbibliothek","latitude":"50.98876","longitude":"10.3159"},{"item":"http://www.wikidata.org/entity/Q28738265","itemLabel":"Deutscher Staatsbürgerinnen-Verband, Bibliothek","latitude":"52.48369","longitude":"13.38562"},{"item":"http://www.wikidata.org/entity/Q28738081","itemLabel":"K. G. Saur Verlag GmbH & Co. KG, Redaktion 'Allgemeines Künstlerlexikon', Bibliothek","latitude":"51.34041","longitude":"12.37939"},{"item":"http://www.wikidata.org/entity/Q28738248","itemLabel":"MKM Mansfelder Kupfer und Messing GmbH, Technische Bücherei","latitude":"51.62951","longitude":"11.50344"},{"item":"http://www.wikidata.org/entity/Q28738058","itemLabel":"Städtisches Klinikum Dresden-Friedrichstadt, Wissenschaftliche Bibliothek","latitude":"51.06005","longitude":"13.71725"},{"item":"http://www.wikidata.org/entity/Q28738216","itemLabel":"Zentralklinikum Suhl gGmbH, Medizinische Fachbibliothek","latitude":"50.60246","longitude":"10.70992"},{"item":"http://www.wikidata.org/entity/Q28738206","itemLabel":"Museum Schloß Burgk, Bibliothek","latitude":"50.55381","longitude":"11.71599"},{"item":"http://www.wikidata.org/entity/Q28738052","itemLabel":"Landesamt für Denkmalpflege Sachsen, Bibliothek","latitude":"51.05326","longitude":"13.73871"},{"item":"http://www.wikidata.org/entity/Q28738059","itemLabel":"Sächsisches Landesamt für Umwelt, Landwirtschaft und Geologie, Bibliothek Klotzsche","latitude":"51.1304","longitude":"13.78797"},{"item":"http://www.wikidata.org/entity/Q28738079","itemLabel":"Institut für Rechtsmedizin an der Universität Leipzig, Außenstelle Chemnitz, Medizinische Fachbibliothek","latitude":"50.85537","longitude":"12.95967"},{"item":"http://www.wikidata.org/entity/Q28738048","itemLabel":"Landesamt für Archäologie Sachsen, Bibliothek","latitude":"51.12975","longitude":"13.79"},{"item":"http://www.wikidata.org/entity/Q28738117","itemLabel":"Heinrich-Braun-Klinikum Zwickau gGmbH, Medizinische Fachbibliothek","latitude":"50.72206","longitude":"12.43242"},{"item":"http://www.wikidata.org/entity/Q28738108","itemLabel":"Kreiskrankenhaus Stollberg gGmbH, Medizinische Fachbibliothek","latitude":"50.7047","longitude":"12.7645"},{"item":"http://www.wikidata.org/entity/Q28738143","itemLabel":"SRH Wald-Klinikum Gera GmbH, Medizinische Bibliothek","latitude":"50.8695","longitude":"12.0502"},{"item":"http://www.wikidata.org/entity/Q28738278","itemLabel":"Predigerseminar der evangelischen Kirche von Kurhessen-Waldeck, Bibliothek","latitude":"51.50276","longitude":"9.40405"},{"item":"http://www.wikidata.org/entity/Q28738067","itemLabel":"Deutsches Institut für Gesundheitsforschung, Wissenschaftliche Bibliothek","latitude":"50.28028","longitude":"12.23686"},{"item":"http://www.wikidata.org/entity/Q28738169","itemLabel":"Jenakultur, Ernst-Abbe-Bücherei und Lesehalle","latitude":"50.92695","longitude":"11.58034"},{"item":"http://www.wikidata.org/entity/Q28738104","itemLabel":"Klinikum Obergöltzsch Rodewisch, Medizinische Fachbibliothek/Patientenbibliothek","latitude":"50.52289","longitude":"12.41061"},{"item":"http://www.wikidata.org/entity/Q28738086","itemLabel":"Berufsakademie Sachsen, Staatliche Studienakademie Leipzig, Bibliothek","latitude":"51.3142","longitude":"12.30331"},{"item":"http://www.wikidata.org/entity/Q28738219","itemLabel":"Fachkrankenhaus für Psychiatrie und Neurologie Hildburghausen GmbH, Medizinische Fachbibliothek","latitude":"50.42511","longitude":"10.74212"},{"item":"http://www.wikidata.org/entity/Q28738273","itemLabel":"Peutinger-Gymnasium, Lehrerbibliothek","latitude":"48.96542","longitude":"10.13485"},{"item":"http://www.wikidata.org/entity/Q28738054","itemLabel":"Landesuntersuchungsanstalt für das Gesundheits- und Veterinärwesen Sachsen, Standort Dresden, Fachbibliothek","latitude":"51.06962","longitude":"13.76896"},{"item":"http://www.wikidata.org/entity/Q28738091","itemLabel":"Klinikum St. Georg gGmbH, Referat Bibliotheken, Fachbibliothek/Patientenbibliothek","latitude":"51.38308","longitude":"12.38004"},{"item":"http://www.wikidata.org/entity/Q28738164","itemLabel":"Staatliches Berufsschulzentrum, Bibliothek","latitude":"50.88689","longitude":"11.85211"},{"item":"http://www.wikidata.org/entity/Q28738183","itemLabel":"JenaKultur Stadtmuseum, Bibliothek","latitude":"50.92855","longitude":"11.58823"},{"item":"http://www.wikidata.org/entity/Q28738123","itemLabel":"Ilm-Kreis-Kliniken Arnstadt-Ilmenau gGmbH, Medizinische Bibliothek","latitude":"50.83937","longitude":"10.94135"},{"item":"http://www.wikidata.org/entity/Q28738275","itemLabel":"Landeszentrum für Gesundheit Nordrhein-Westfalen, Bibliothek","latitude":"52.05758","longitude":"8.5476"},{"item":"http://www.wikidata.org/entity/Q28738194","itemLabel":"Thüringisches Institut für Textil- und Kunststoff-Forschung e.V., Wissenschaftliche Bibliothek","latitude":"50.69738","longitude":"11.32981"},{"item":"http://www.wikidata.org/entity/Q28738186","itemLabel":"Medizinische Fachbibliothek des Ökumenischen Hainich-Klinikum Mühlhausen","latitude":"51.20838","longitude":"10.40532"},{"item":"http://www.wikidata.org/entity/Q28738096","itemLabel":"Bell Flavors & Fragrances Duft und Aroma GmbH, Wissenschaftliche Bibliothek","latitude":"51.32854","longitude":"12.25264"},{"item":"http://www.wikidata.org/entity/Q28738237","itemLabel":"Sophien- und Hufeland-Klinikum gGmbH, Medizinische Zentralbücherei","latitude":"50.96078","longitude":"11.32193"},{"item":"http://www.wikidata.org/entity/Q28738224","itemLabel":"Kreiskrankenhaus, Medizinische Fachbibliothek","latitude":"50.42898","longitude":"10.72811"},{"item":"http://www.wikidata.org/entity/Q28738262","itemLabel":"Institut für soziale Demokratie (August-Bebel-Institut), Bibliothek","latitude":"52.5437","longitude":"13.36359"},{"item":"http://www.wikidata.org/entity/Q28738151","itemLabel":"Thüringen-Klinik gGmbH 'Georgius Agricola', Medizinische Fachbibliothek","latitude":"50.64373","longitude":"11.34479"},{"item":"http://www.wikidata.org/entity/Q28738271","itemLabel":"Consistorium der Französischen Kirche, Hugenottenbibliothek","latitude":"52.51362","longitude":"13.39272"},{"item":"http://www.wikidata.org/entity/Q28738141","itemLabel":"Bibliothek des Bildungszentrums der Thüringer Landesverwaltung in Gotha und der Verwaltungsfachhochschule für die öffentliche Verwaltung","latitude":"50.94163","longitude":"10.71108"},{"item":"http://www.wikidata.org/entity/Q28738105","itemLabel":"Elblandkliniken Riesa-Großenhain GmbH, Elblandklinikum Riesa, Medizinisch-Wissenschaftliche Bibliothek","latitude":"51.29628","longitude":"13.30969"},{"item":"http://www.wikidata.org/entity/Q28738272","itemLabel":"Bibliothek TECHNOSEUM Landesmuseum für Technik und Arbeit","latitude":"49.47678","longitude":"8.49655"},{"item":"http://www.wikidata.org/entity/Q28738121","itemLabel":"Forschungsbibliothek Gotha","latitude":"50.94605","longitude":"10.70485"},{"item":"http://www.wikidata.org/entity/Q28738065","itemLabel":"Elblandkliniken Stiftung & Co. KG, Elblandklinikum Radebeul, Ärztebibliothek","latitude":"51.10836","longitude":"13.65165"},{"item":"http://www.wikidata.org/entity/Q28738228","itemLabel":"E.S.C.H. Engineering Service Center und Handel GmbH, Zweigstelle Saalfeld, Bibliothek","latitude":"50.65125","longitude":"11.34282"},{"item":"http://www.wikidata.org/entity/Q28738103","itemLabel":"Sächsisches Krankenhaus für Psychiatrie und Neurologie Rodewisch, Wissenschaftliche Bibliothek","latitude":"50.53158","longitude":"12.39977"},{"item":"http://www.wikidata.org/entity/Q28738066","itemLabel":"Umweltbundesamt, Fachbibliothek Umwelt, Zweigstelle Bad Elster","latitude":"50.27948","longitude":"12.22688"},{"item":"http://www.wikidata.org/entity/Q28738046","itemLabel":"Institut für Holztechnologie Dresden gGmbH, Bibliothek","latitude":"51.02841","longitude":"13.74179"},{"item":"http://www.wikidata.org/entity/Q28738074","itemLabel":"Kreiskrankenhaus Glauchau gGmbH, Medizinische Fach- und Patientenbibliothek","latitude":"50.81169","longitude":"12.54605"},{"item":"http://www.wikidata.org/entity/Q28738094","itemLabel":"Elblandkliniken Meißen-Radebeul GmbH & Co. KG, Allgemeine Verwaltung / Bibliothek","latitude":"51.17341","longitude":"13.50525"},{"item":"http://www.wikidata.org/entity/Q28738051","itemLabel":"Bundesanstalt für Arbeitsschutz und Arbeitsmedizin, Außenstelle Dresden, Bibliothek","latitude":"51.08284","longitude":"13.75408"},{"item":"http://www.wikidata.org/entity/Q28738148","itemLabel":"Asklepios Fachklinikum Stadtroda, Medizinische Fachbibliothek","latitude":"50.8619","longitude":"11.72596"},{"item":"http://www.wikidata.org/entity/Q28738200","itemLabel":"Museum Schloß Wilhelmsburg, Bibliothek","latitude":"50.72296","longitude":"10.45578"},{"item":"http://www.wikidata.org/entity/Q28738253","itemLabel":"Verein für die Geschichte Berlins e.V., Bibliothek","latitude":"52.51599","longitude":"13.40337"},{"item":"http://www.wikidata.org/entity/Q28738245","itemLabel":"Leibniz-Institut für Pflanzengenetik und Kulturpflanzenforschung (IPK), Wissenschaftliche Bibliothek / Dokumentation","latitude":"51.82602","longitude":"11.28141"},{"item":"http://www.wikidata.org/entity/Q28738268","itemLabel":"Stiftung Warentest, Bibliothek","latitude":"52.50416","longitude":"13.35331"},{"item":"http://www.wikidata.org/entity/Q28738063","itemLabel":"Sächsisches Krankenhaus Arnsdorf, Wissenschaftliche Bibliothek","latitude":"51.09318","longitude":"13.99649"},{"item":"http://www.wikidata.org/entity/Q28738062","itemLabel":"Bibliothek des Instituts für Sächsische Geschichte und Volkskunde","latitude":"51.02981","longitude":"13.73852"},{"item":"http://www.wikidata.org/entity/Q28738181","itemLabel":"Thüringer Landesanstalt für Landwirtschaft, Bibliothek","latitude":"50.95592","longitude":"11.61699"},{"item":"http://www.wikidata.org/entity/Q28738068","itemLabel":"Sächsisches Landesamt für Umwelt, Landwirtschaft und Geologie, Bibliothek Freiberg","latitude":"50.92532","longitude":"13.34807"},{"item":"http://www.wikidata.org/entity/Q28738047","itemLabel":"Museum für Völkerkunde Dresden, Bibliothek","latitude":"51.12883","longitude":"13.79003"},{"item":"http://www.wikidata.org/entity/Q28738239","itemLabel":"Zentralklinik Bad Berka GmbH, Medizinische Fachbibliothek","latitude":"50.88989","longitude":"11.26768"},{"item":"http://www.wikidata.org/entity/Q28738085","itemLabel":"Bundesamt für Kartographie und Geodäsie, Außenstelle Leipzig, Bibliothek","latitude":"51.35399","longitude":"12.374"},{"item":"http://www.wikidata.org/entity/Q28738075","itemLabel":"Landesuntersuchungsanstalt für das Gesundheits- und Veterinärwesen Sachsen, Standort Chemnitz, Bibliothek","latitude":"50.82652","longitude":"12.93023"},{"item":"http://www.wikidata.org/entity/Q28738145","itemLabel":"Evangelisch-methodistische Kirche OJK, Bibliothek","latitude":"50.67983","longitude":"12.47687"},{"item":"http://www.wikidata.org/entity/Q28738212","itemLabel":"Sternwarte Sonneberg, Bibliothek","latitude":"50.37733","longitude":"11.19008"},{"item":"http://www.wikidata.org/entity/Q28738209","itemLabel":"Naturhistorisches Museum Schloß Bertholdsburg, Bibliothek","latitude":"50.50948","longitude":"10.74982"},{"item":"http://www.wikidata.org/entity/Q28738153","itemLabel":"Kreiskrankenhaus Pößneck, Fach- und Patientenbibliothek","latitude":"50.69825","longitude":"11.59073"},{"item":"http://www.wikidata.org/entity/Q28738055","itemLabel":"Leibniz-Institut für Festkörper- und Werkstoffforschung, IFW Dresden, Bibliothek","latitude":"51.02671","longitude":"13.72533"},{"item":"http://www.wikidata.org/entity/Q28738270","itemLabel":"Universitäts- und Landesbibliothek, Abteilungsbibliothek Medizin, Naturwissenschaften und Landbau","latitude":"50.72706","longitude":"7.08653"},{"item":"http://www.wikidata.org/entity/Q28738089","itemLabel":"Dow Olefinverbund GmbH, Werk Böhlen, Fachbibliothek","latitude":"51.18772","longitude":"12.35306"},{"item":"http://www.wikidata.org/entity/Q28738259","itemLabel":"Physikalisch-Technische Bundesanstalt, Institut Berlin, Bibliothek","latitude":"52.51577","longitude":"13.32034"},{"item":"http://www.wikidata.org/entity/Q28729357","itemLabel":"Gemeindebücherei Vaterstetten","latitude":"48.10575","longitude":"11.78571"},{"item":"http://www.wikidata.org/entity/Q28729286","itemLabel":"Samtgemeindebücherei Salzhausen","latitude":"53.21858","longitude":"10.16949"},{"item":"http://www.wikidata.org/entity/Q28729368","itemLabel":"Gemeindebücherei Kleinwallstadt","latitude":"49.87608","longitude":"9.16606"},{"item":"http://www.wikidata.org/entity/Q28729292","itemLabel":"Samtgemeindebücherei Artland","latitude":"52.67547","longitude":"7.95697"},{"item":"http://www.wikidata.org/entity/Q28729308","itemLabel":"Gemeindebücherei Bellheim","latitude":"49.19436","longitude":"8.28758"},{"item":"http://www.wikidata.org/entity/Q28729365","itemLabel":"Gemeindebücherei Grafenrheinfeld","latitude":"50.00216","longitude":"10.19965"},{"item":"http://www.wikidata.org/entity/Q28729372","itemLabel":"Gemeindebücherei Ainring","latitude":"47.81421","longitude":"12.95172"},{"item":"http://www.wikidata.org/entity/Q28729293","itemLabel":"Gemeindebücherei Bad Essen","latitude":"52.31751","longitude":"8.33747"},{"item":"http://www.wikidata.org/entity/Q28729272","itemLabel":"Samtgemeindebücherei Lüchow","latitude":"52.96554","longitude":"11.16068"},{"item":"http://www.wikidata.org/entity/Q28729361","itemLabel":"Gemeindebücherei Neuendettelsau","latitude":"49.28571","longitude":"10.78576"},{"item":"http://www.wikidata.org/entity/Q28729314","itemLabel":"Gemeindebücherei Gauting","latitude":"48.06697","longitude":"11.37916"},{"item":"http://www.wikidata.org/entity/Q28729306","itemLabel":"Gemeindebibliothek Hude","latitude":"53.1079","longitude":"8.44727"},{"item":"http://www.wikidata.org/entity/Q28729323","itemLabel":"Gemeindebibliothek Breitungen","latitude":"50.75672","longitude":"10.33544"},{"item":"http://www.wikidata.org/entity/Q28729345","itemLabel":"Gemeindebücherei Ustersbach","latitude":"48.31688","longitude":"10.64633"},{"item":"http://www.wikidata.org/entity/Q28729304","itemLabel":"Gemeindebibliothek Blankenfelde-Mahlow","latitude":"52.33162","longitude":"13.39534"},{"item":"http://www.wikidata.org/entity/Q28729377","itemLabel":"Gemeindebibliothek im Pfarrstadel Buch am Erlbach","latitude":"48.44567","longitude":"12.03995"},{"item":"http://www.wikidata.org/entity/Q28729375","itemLabel":"Gemeindebücherei Babenhausen","latitude":"48.14384","longitude":"10.2542"},{"item":"http://www.wikidata.org/entity/Q28729309","itemLabel":"Gemeindebücherei Haßloch","latitude":"49.36266","longitude":"8.25619"},{"item":"http://www.wikidata.org/entity/Q28729271","itemLabel":"Samtgemeindebücherei Horneburg","latitude":"53.50841","longitude":"9.58332"},{"item":"http://www.wikidata.org/entity/Q28729360","itemLabel":"Gemeindebücherei Eckental","latitude":"49.57697","longitude":"11.20569"},{"item":"http://www.wikidata.org/entity/Q28729341","itemLabel":"Gemeindebücherei Schwaig","latitude":"49.4732","longitude":"11.19715"},{"item":"http://www.wikidata.org/entity/Q28729328","itemLabel":"Gemeindebücherei Friedenfels","latitude":"49.8817","longitude":"12.10346"},{"item":"http://www.wikidata.org/entity/Q28729351","itemLabel":"Gemeindebücherei Olching","latitude":"48.20428","longitude":"11.33031"},{"item":"http://www.wikidata.org/entity/Q28729354","itemLabel":"Gemeindebücherei Planegg","latitude":"48.10387","longitude":"11.42365"},{"item":"http://www.wikidata.org/entity/Q28729325","itemLabel":"Gemeindebücherei Emmering","latitude":"48.18392","longitude":"11.27974"},{"item":"http://www.wikidata.org/entity/Q28729280","itemLabel":"Gemeindebücherei Drochtersen","latitude":"53.71252","longitude":"9.37894"},{"item":"http://www.wikidata.org/entity/Q28729283","itemLabel":"Gemeindebücherei Delligsen","latitude":"51.94059","longitude":"9.79554"},{"item":"http://www.wikidata.org/entity/Q28729311","itemLabel":"Gemeindebücherei Neustadt (Wied)","latitude":"50.62326","longitude":"7.43065"},{"item":"http://www.wikidata.org/entity/Q28729347","itemLabel":"Gemeindebücherei Eggstätt","latitude":"47.92713","longitude":"12.377"},{"item":"http://www.wikidata.org/entity/Q28729340","itemLabel":"Gemeindebücherei Schondorf","latitude":"48.05281","longitude":"11.09045"},{"item":"http://www.wikidata.org/entity/Q28729367","itemLabel":"Gemeindebücherei Kahl am Main","latitude":"50.06765","longitude":"9.0093"},{"item":"http://www.wikidata.org/entity/Q28729324","itemLabel":"Gemeindebibliothek Bergrheinfeld","latitude":"50.00506","longitude":"10.17882"},{"item":"http://www.wikidata.org/entity/Q28729348","itemLabel":"Gemeindebücherei Eichenau","latitude":"48.17371","longitude":"11.32348"},{"item":"http://www.wikidata.org/entity/Q28729390","itemLabel":"Gemeindebücherei Wildsteig","latitude":"47.69776","longitude":"10.93759"},{"item":"http://www.wikidata.org/entity/Q28729370","itemLabel":"Gemeindebücherei Marxheim","latitude":"48.74283","longitude":"10.94562"},{"item":"http://www.wikidata.org/entity/Q28729329","itemLabel":"Gemeindebücherei Gräfelfing","latitude":"48.12033","longitude":"11.42783"},{"item":"http://www.wikidata.org/entity/Q28729392","itemLabel":"Gemeindebücherei Schweitenkirchen","latitude":"48.50579","longitude":"11.60631"},{"item":"http://www.wikidata.org/entity/Q28729336","itemLabel":"Gemeindebücherei Peiting","latitude":"47.79313","longitude":"10.93415"},{"item":"http://www.wikidata.org/entity/Q28729327","itemLabel":"Gemeindebücherei Feldkirchen","latitude":"48.14764","longitude":"11.73059"},{"item":"http://www.wikidata.org/entity/Q28729342","itemLabel":"Gemeindebücherei Hallbergmoos","latitude":"48.31814","longitude":"11.74664"},{"item":"http://www.wikidata.org/entity/Q28729305","itemLabel":"Gemeindebibliothek Mutterstadt","latitude":"49.44306","longitude":"8.35559"},{"item":"http://www.wikidata.org/entity/Q28729369","itemLabel":"Gemeindebücherei Niederwerrn","latitude":"50.06261","longitude":"10.17597"},{"item":"http://www.wikidata.org/entity/Q28729319","itemLabel":"Gemeindebücherei Unterhaching","latitude":"48.06622","longitude":"11.6097"},{"item":"http://www.wikidata.org/entity/Q28729337","itemLabel":"Gemeindebücherei Pöcking","latitude":"47.9671","longitude":"11.30071"},{"item":"http://www.wikidata.org/entity/Q28729349","itemLabel":"Gemeindebücherei Neufahrn","latitude":"48.31646","longitude":"11.65986"},{"item":"http://www.wikidata.org/entity/Q28729310","itemLabel":"Gemeindebücherei Jockgrim","latitude":"49.09332","longitude":"8.27252"},{"item":"http://www.wikidata.org/entity/Q28729326","itemLabel":"Gemeindebücherei Feldafing","latitude":"47.95141","longitude":"11.29732"},{"item":"http://www.wikidata.org/entity/Q28729301","itemLabel":"Samtgemeindebücherei Stadtoldendorf","latitude":"51.88318","longitude":"9.62421"},{"item":"http://www.wikidata.org/entity/Q28729371","itemLabel":"Gemeindebücherei Türkheim","latitude":"48.06025","longitude":"10.639"},{"item":"http://www.wikidata.org/entity/Q28729386","itemLabel":"Gemeindebücherei Perlesreut","latitude":"48.77873","longitude":"13.44196"},{"item":"http://www.wikidata.org/entity/Q28729353","itemLabel":"Gemeindebibliothek Ottobrunn","latitude":"48.06476","longitude":"11.6655"},{"item":"http://www.wikidata.org/entity/Q28729378","itemLabel":"Gemeindebibliothek Burgkirchen","latitude":"48.16751","longitude":"12.72986"},{"item":"http://www.wikidata.org/entity/Q28729298","itemLabel":"Samtgemeindebücherei Hankensbüttel","latitude":"52.73193","longitude":"10.62008"},{"item":"http://www.wikidata.org/entity/Q28729389","itemLabel":"Gemeindebücherei Lalling","latitude":"48.84536","longitude":"13.14029"},{"item":"http://www.wikidata.org/entity/Q28729321","itemLabel":"Gemeindebücherei Offenbach","latitude":"49.19315","longitude":"8.19063"},{"item":"http://www.wikidata.org/entity/Q28729291","itemLabel":"Gemeindebücherei Bomlitz","latitude":"52.92012","longitude":"9.67099"},{"item":"http://www.wikidata.org/entity/Q28729303","itemLabel":"Gemeindebibliothek Glienicke/Nordbahn","latitude":"52.6305","longitude":"13.31924"},{"item":"http://www.wikidata.org/entity/Q28729384","itemLabel":"Gemeindebücherei Schöllnach","latitude":"48.75574","longitude":"13.17487"},{"item":"http://www.wikidata.org/entity/Q28729383","itemLabel":"Gemeindebücherei Windorf","latitude":"48.6275","longitude":"13.2156"},{"item":"http://www.wikidata.org/entity/Q28729363","itemLabel":"Gemeindebücherei Petersaurach","latitude":"49.31071","longitude":"10.74429"},{"item":"http://www.wikidata.org/entity/Q28729380","itemLabel":"Gemeindebücherei Ergolding","latitude":"48.57692","longitude":"12.17212"},{"item":"http://www.wikidata.org/entity/Q28729338","itemLabel":"Gemeindebücherei Poing","latitude":"48.17028","longitude":"11.81621"},{"item":"http://www.wikidata.org/entity/Q28729297","itemLabel":"Gemeindebücherei Neunkirchen","latitude":"50.87259","longitude":"7.32636"},{"item":"http://www.wikidata.org/entity/Q28729364","itemLabel":"Gemeindebücherei Wendelstein","latitude":"49.35594","longitude":"11.14328"},{"item":"http://www.wikidata.org/entity/Q28729385","itemLabel":"Gemeindebücherei Simbach","latitude":"48.56625","longitude":"12.73749"},{"item":"http://www.wikidata.org/entity/Q28729313","itemLabel":"Gemeindebücherei Grenzach-Wyhlen","latitude":"47.55133","longitude":"7.66038"},{"item":"http://www.wikidata.org/entity/Q28729356","itemLabel":"Gemeindebücherei Tacherting","latitude":"48.07978","longitude":"12.57112"},{"item":"http://www.wikidata.org/entity/Q28729300","itemLabel":"Gemeindebücherei Bienenbüttel","latitude":"53.14106","longitude":"10.48931"},{"item":"http://www.wikidata.org/entity/Q28729335","itemLabel":"Gemeindebücherei Karlstein a. Main","latitude":"50.04569","longitude":"9.02324"},{"item":"http://www.wikidata.org/entity/Q28729282","itemLabel":"Samtgemeindebücherei Sittensen","latitude":"53.28084","longitude":"9.50389"},{"item":"http://www.wikidata.org/entity/Q28729332","itemLabel":"Gemeindebücherei Gröbenzell","latitude":"48.19379","longitude":"11.371"},{"item":"http://www.wikidata.org/entity/Q28729346","itemLabel":"Gemeindebibliothek Wildflecken","latitude":"50.38042","longitude":"9.9086"},{"item":"http://www.wikidata.org/entity/Q28729322","itemLabel":"Samtgemeindebücherei Tostedt","latitude":"53.27724","longitude":"9.70919"},{"item":"http://www.wikidata.org/entity/Q28729387","itemLabel":"Gemeindebücherei Perach","latitude":"48.2667","longitude":"12.7667"},{"item":"http://www.wikidata.org/entity/Q28729334","itemLabel":"Gemeindebücherei Karlsfeld","latitude":"48.22745","longitude":"11.46761"},{"item":"http://www.wikidata.org/entity/Q28729275","itemLabel":"Gemeindebücherei Langerwehe","latitude":"50.8171","longitude":"6.36385"},{"item":"http://www.wikidata.org/entity/Q28729290","itemLabel":"Gemeindebücherei Westoverledingen","latitude":"53.16613","longitude":"7.45206"},{"item":"http://www.wikidata.org/entity/Q28729317","itemLabel":"Gemeindebücherei Murnau a. Staffelsee","latitude":"47.67943","longitude":"11.19528"},{"item":"http://www.wikidata.org/entity/Q28729316","itemLabel":"Gemeindebücherei Altrip","latitude":"49.43234","longitude":"8.49903"},{"item":"http://www.wikidata.org/entity/Q28729318","itemLabel":"Gemeindebücherei Tutzing","latitude":"47.91055","longitude":"11.27698"},{"item":"http://www.wikidata.org/entity/Q28729358","itemLabel":"Gemeindebücherei Kümmersbruck","latitude":"49.42074","longitude":"11.88514"},{"item":"http://www.wikidata.org/entity/Q28729366","itemLabel":"Gemeindebücherei Großostheim","latitude":"49.91767","longitude":"9.07844"},{"item":"http://www.wikidata.org/entity/Q28729339","itemLabel":"Gemeindebücherei Sauerlach","latitude":"47.97188","longitude":"11.6534"},{"item":"http://www.wikidata.org/entity/Q28729294","itemLabel":"Gemeindebücherei Ritterhude","latitude":"53.1775","longitude":"8.74825"},{"item":"http://www.wikidata.org/entity/Q28729374","itemLabel":"Gemeindebücherei Asbach-Bäumenheim","latitude":"48.68161","longitude":"10.81443"},{"item":"http://www.wikidata.org/entity/Q28729288","itemLabel":"Samtgemeindebücherei Ebstorf","latitude":"53.02875","longitude":"10.41566"},{"item":"http://www.wikidata.org/entity/Q28729343","itemLabel":"Gemeindebücherei Halfing","latitude":"47.95197","longitude":"12.27461"},{"item":"http://www.wikidata.org/entity/Q28729379","itemLabel":"Gemeindebücherei Wallersdorf","latitude":"48.73906","longitude":"12.74698"},{"item":"http://www.wikidata.org/entity/Q28729312","itemLabel":"Gemeindebücherei Lingenfeld","latitude":"49.24939","longitude":"8.3432"},{"item":"http://www.wikidata.org/entity/Q28729381","itemLabel":"Gemeindebücherei Bodenmais","latitude":"49.0635","longitude":"13.1044"},{"item":"http://www.wikidata.org/entity/Q28729276","itemLabel":"Gemeindebücherei Limburgerhof","latitude":"49.4174","longitude":"8.38964"},{"item":"http://www.wikidata.org/entity/Q28729315","itemLabel":"Gemeindebibliothek Grünwald","latitude":"48.04086","longitude":"11.5245"},{"item":"http://www.wikidata.org/entity/Q28729278","itemLabel":"Samtgemeindebibliothek Barnstorf","latitude":"52.71014","longitude":"8.50639"},{"item":"http://www.wikidata.org/entity/Q28729333","itemLabel":"Gemeindebibliothek Ismaning","latitude":"48.22233","longitude":"11.67726"},{"item":"http://www.wikidata.org/entity/Q28729330","itemLabel":"Gemeindebücherei Grasbrunn","latitude":"48.09386","longitude":"11.75792"},{"item":"http://www.wikidata.org/entity/Q28729350","itemLabel":"Gemeindebücherei St. Michael Lauterhofen","latitude":"49.36828","longitude":"11.60342"},{"item":"http://www.wikidata.org/entity/Q28729344","itemLabel":"Gemeindebibliothek Unterföhring","latitude":"48.19199","longitude":"11.63996"},{"item":"http://www.wikidata.org/entity/Q28729376","itemLabel":"Gemeindebücherei Bernried-Birket","latitude":"48.88753","longitude":"12.92071"},{"item":"http://www.wikidata.org/entity/Q28729373","itemLabel":"Gemeindebücherei Altmannstein","latitude":"48.9","longitude":"11.65"},{"item":"http://www.wikidata.org/entity/Q28729285","itemLabel":"Gemeindebücherei Südheide","latitude":"52.83194","longitude":"10.09566"},{"item":"http://www.wikidata.org/entity/Q28729431","itemLabel":"Gemeindebücherei Haus des Gastes Bad Kohlgrub","latitude":"47.66417","longitude":"11.05386"},{"item":"http://www.wikidata.org/entity/Q28729411","itemLabel":"Gemeindebücherei Pfarrheim Ottobeuren","latitude":"47.94256","longitude":"10.29754"},{"item":"http://www.wikidata.org/entity/Q28729494","itemLabel":"Gemeindebücherei Kirchseeon","latitude":"48.07422","longitude":"11.88695"},{"item":"http://www.wikidata.org/entity/Q28729461","itemLabel":"Gemeindebücherei Zellingen","latitude":"49.89874","longitude":"9.81874"},{"item":"http://www.wikidata.org/entity/Q28729399","itemLabel":"Gemeindebücherei Petting","latitude":"47.91229","longitude":"12.81577"},{"item":"http://www.wikidata.org/entity/Q28729504","itemLabel":"Gemeindebücherei Oberding","latitude":"48.32181","longitude":"11.84395"},{"item":"http://www.wikidata.org/entity/Q28729417","itemLabel":"Gemeindebücherei Bürgstadt","latitude":"49.72044","longitude":"9.26952"},{"item":"http://www.wikidata.org/entity/Q28729499","itemLabel":"Gemeindebücherei Hausham","latitude":"47.74719","longitude":"11.84159"},{"item":"http://www.wikidata.org/entity/Q28729454","itemLabel":"Gemeindebücherei Zorneding","latitude":"48.08564","longitude":"11.82748"},{"item":"http://www.wikidata.org/entity/Q28729479","itemLabel":"Gemeindebibliothek Röthlein","latitude":"49.98572","longitude":"10.2169"},{"item":"http://www.wikidata.org/entity/Q28729460","itemLabel":"Gemeindebücherei Arnstorf","latitude":"48.56141","longitude":"12.81762"},{"item":"http://www.wikidata.org/entity/Q28729495","itemLabel":"Gemeindebücherei Holzkirchen","latitude":"47.87759","longitude":"11.70157"},{"item":"http://www.wikidata.org/entity/Q28729471","itemLabel":"Gemeindebibliothek Stadtlauringen","latitude":"50.18676","longitude":"10.36071"},{"item":"http://www.wikidata.org/entity/Q28729491","itemLabel":"Gemeindebücherei Langquaid","latitude":"48.82072","longitude":"12.05027"},{"item":"http://www.wikidata.org/entity/Q28729432","itemLabel":"Gemeindebücherei Reit im Winkl","latitude":"47.67756","longitude":"12.47027"},{"item":"http://www.wikidata.org/entity/Q28729497","itemLabel":"Gemeindebücherei Graben","latitude":"48.18853","longitude":"10.82884"},{"item":"http://www.wikidata.org/entity/Q28729473","itemLabel":"Gemeindebücherei Schwebheim","latitude":"49.99857","longitude":"10.25133"},