[{"item":"http://www.wikidata.org/entity/Q22616","itemLabel":"Feuerbachhaus","latitude":"49.3146","longitude":"8.43567"},{"item":"http://www.wikidata.org/entity/Q454078","itemLabel":"Belvédère sur la Pfingstberg","latitude":"52.4187","longitude":"13.059"},{"item":"http://www.wikidata.org/entity/Q473848","itemLabel":"Porzellansammlung","latitude":"51.0522","longitude":"13.7346"},{"item":"http://www.wikidata.org/entity/Q533069","itemLabel":"Herzogliches Georgianum","latitude":"48.149976096222","longitude":"11.581743654367"},{"item":"http://www.wikidata.org/entity/Q573676","itemLabel":"Drachenhaus","latitude":"52.4061","longitude":"13.0215"},{"item":"http://www.wikidata.org/entity/Q435596","itemLabel":"Alte Gerberei (Ohrdruf)","latitude":"50.8297","longitude":"10.7344"},{"item":"http://www.wikidata.org/entity/Q201033","itemLabel":"Geschichtsort Villa ten Hompel. Münster in Westfalen, Allemagne","latitude":"51.9663","longitude":"7.64653"},{"item":"http://www.wikidata.org/entity/Q162017","itemLabel":"Deutsches Motorrollermuseum","latitude":"50.0895","longitude":"7.75949"},{"item":"http://www.wikidata.org/entity/Q573656","itemLabel":"château de Schwerin","latitude":"53.624166666667","longitude":"11.418888888889"},{"item":"http://www.wikidata.org/entity/Q570620","itemLabel":"cabinet de chalcographie","latitude":"51.0527","longitude":"13.7369"},{"item":"http://www.wikidata.org/entity/Q191193","itemLabel":"Zentrum für Außergewöhnliche Museen","latitude":"48.135","longitude":"11.58"},{"item":"http://www.wikidata.org/entity/Q430550","itemLabel":"nouvelle résidence de Bamberg","latitude":"49.891666666667","longitude":"10.8825"},{"item":"http://www.wikidata.org/entity/Q432989","itemLabel":"Alt-Segeberger Bürgerhaus","latitude":"53.9364","longitude":"10.314"},{"item":"http://www.wikidata.org/entity/Q151195","itemLabel":"Ordensburg Vogelsang","latitude":"50.5844","longitude":"6.44806"},{"item":"http://www.wikidata.org/entity/Q449280","itemLabel":"Fridericianum","latitude":"51.3136","longitude":"9.4975"},{"item":"http://www.wikidata.org/entity/Q510343","itemLabel":"musée Alexander Koenig","latitude":"50.7221615","longitude":"7.113381"},{"item":"http://www.wikidata.org/entity/Q473832","itemLabel":"Paläontologisches Museum","latitude":"48.1476","longitude":"11.5638"},{"item":"http://www.wikidata.org/entity/Q473831","itemLabel":"château de Mosigkau","latitude":"51.806","longitude":"12.1508"},{"item":"http://www.wikidata.org/entity/Q4890","itemLabel":"Gemäldegalerie Alte Meister Dresde","latitude":"51.05338","longitude":"13.73466"},{"item":"http://www.wikidata.org/entity/Q4890","itemLabel":"Gemäldegalerie Alte Meister Dresde","latitude":"51.053388","longitude":"13.734707"},{"item":"http://www.wikidata.org/entity/Q422975","itemLabel":"Handweberei „Henni Jaensch-Zeymer“","latitude":"52.366389","longitude":"12.955833"},{"item":"http://www.wikidata.org/entity/Q564207","itemLabel":"château de Lahneck","latitude":"50.3063","longitude":"7.61246"},{"item":"http://www.wikidata.org/entity/Q198603","itemLabel":"Musée de la briqueterie Glindow","latitude":"52.3544","longitude":"12.9225"},{"item":"http://www.wikidata.org/entity/Q481219","itemLabel":"Amtshaus (Grünsfeld)","latitude":"49.6084","longitude":"9.7457"},{"item":"http://www.wikidata.org/entity/Q477607","itemLabel":"Schloss vor Husum","latitude":"54.4799","longitude":"9.04982"},{"item":"http://www.wikidata.org/entity/Q191195","itemLabel":"Zentrum für Biodokumentation","latitude":"49.35","longitude":"7.11139"},{"item":"http://www.wikidata.org/entity/Q159556","itemLabel":"Collection Philippi","latitude":"49.2864","longitude":"7.22141"},{"item":"http://www.wikidata.org/entity/Q452362","itemLabel":"musée régional de la Hesse","latitude":"49.8747","longitude":"8.65306"},{"item":"http://www.wikidata.org/entity/Q163291","itemLabel":"Kultur- und Militärmuseum Grafenwöhr","latitude":"49.720486","longitude":"11.904113"},{"item":"http://www.wikidata.org/entity/Q371836","itemLabel":"Museum Würth. Künzelsau, Allemagne","latitude":"49.2586","longitude":"9.67918"},{"item":"http://www.wikidata.org/entity/Q574088","itemLabel":"Türckische Cammer","latitude":"51.05289","longitude":"13.73635"},{"item":"http://www.wikidata.org/entity/Q191427","itemLabel":"musée Zeppelin","latitude":"47.65056","longitude":"9.48303"},{"item":"http://www.wikidata.org/entity/Q152966","itemLabel":"musée de la chasse et de la pêche","latitude":"48.1384","longitude":"11.5711"},{"item":"http://www.wikidata.org/entity/Q154996","itemLabel":"château de Charlottenbourg","latitude":"52.521111","longitude":"13.295833"},{"item":"http://www.wikidata.org/entity/Q501944","itemLabel":"Wendisches Museum","latitude":"51.7598","longitude":"14.3345"},{"item":"http://www.wikidata.org/entity/Q164502","itemLabel":"Haus Ludwig","latitude":"49.3136","longitude":"6.74891"},{"item":"http://www.wikidata.org/entity/Q571773","itemLabel":"Rüstkammer","latitude":"51.05254","longitude":"13.73743"},{"item":"http://www.wikidata.org/entity/Q474841","itemLabel":"musée Gutenberg","latitude":"49.999722222222","longitude":"8.2752777777778"},{"item":"http://www.wikidata.org/entity/Q126971","itemLabel":"Altonaer Museum","latitude":"53.54902","longitude":"9.9347"},{"item":"http://www.wikidata.org/entity/Q191397","itemLabel":"Zeppelin-Museum Meersburg","latitude":"47.69392","longitude":"9.27168"},{"item":"http://www.wikidata.org/entity/Q186043","itemLabel":"Zeitgeschichtliches Forum Leipzig","latitude":"51.3397","longitude":"12.3758"},{"item":"http://www.wikidata.org/entity/Q447441","itemLabel":"Bergpark Wilhelmshöhe","latitude":"51.3167","longitude":"9.4"},{"item":"http://www.wikidata.org/entity/Q179062","itemLabel":"château Weissenstein","latitude":"49.763094540769","longitude":"10.82088737696"},{"item":"http://www.wikidata.org/entity/Q157886","itemLabel":"monastère de Maulbronn","latitude":"49.0011","longitude":"8.8129"},{"item":"http://www.wikidata.org/entity/Q538183","itemLabel":"Angermuseum. Erfurt, Allemagne","latitude":"50.9756","longitude":"11.0342"},{"item":"http://www.wikidata.org/entity/Q152802","itemLabel":"Buchenwald","latitude":"51.021198","longitude":"11.248999"},{"item":"http://www.wikidata.org/entity/Q179062","itemLabel":"château Weissenstein","latitude":"49.76274","longitude":"10.82049"},{"item":"http://www.wikidata.org/entity/Q372030","itemLabel":"Erzgebirgsmuseum","latitude":"50.5784","longitude":"13.0043"},{"item":"http://www.wikidata.org/entity/Q396139","itemLabel":"Barnim Panorama","latitude":"52.7524","longitude":"13.4538"},{"item":"http://www.wikidata.org/entity/Q468169","itemLabel":"musée Suermondt-Ludwig","latitude":"50.7735","longitude":"6.09569"},{"item":"http://www.wikidata.org/entity/Q167314","itemLabel":"château de la Résidence de Dresde","latitude":"51.052778","longitude":"13.736944"},{"item":"http://www.wikidata.org/entity/Q159556","itemLabel":"Collection Philippi","latitude":"49.481972222222","longitude":"7.0310277777778"},{"item":"http://www.wikidata.org/entity/Q504517","itemLabel":"château de Weikersheim","latitude":"49.4806","longitude":"9.89583"},{"item":"http://www.wikidata.org/entity/Q254134","itemLabel":"Musée égyptien de l'Université de Leipzig","latitude":"51.33986389","longitude":"12.38"},{"item":"http://www.wikidata.org/entity/Q574723","itemLabel":"château de Mannheim","latitude":"49.4829","longitude":"8.46177"},{"item":"http://www.wikidata.org/entity/Q179134","itemLabel":"Museum zur Vorgeschichte des Films","latitude":"51.4291","longitude":"6.86818"},{"item":"http://www.wikidata.org/entity/Q565296","itemLabel":"Anne Frank Zentrum","latitude":"52.5245","longitude":"13.4017"},{"item":"http://www.wikidata.org/entity/Q129314","itemLabel":"Burg Pyrmont","latitude":"50.2374","longitude":"7.28765"},{"item":"http://www.wikidata.org/entity/Q160385","itemLabel":"Haus Schminke","latitude":"51.1004","longitude":"14.6594"},{"item":"http://www.wikidata.org/entity/Q162052","itemLabel":"château de Linderhof","latitude":"47.571618654761","longitude":"10.96075437605"},{"item":"http://www.wikidata.org/entity/Q458586","itemLabel":"Jura Museum","latitude":"48.895","longitude":"11.1686"},{"item":"http://www.wikidata.org/entity/Q466256","itemLabel":"U-Boot-Bunker Valentin","latitude":"53.2167","longitude":"8.50417"},{"item":"http://www.wikidata.org/entity/Q452685","itemLabel":"Münchner Stadtmuseum","latitude":"48.135111111111","longitude":"11.572583333333"},{"item":"http://www.wikidata.org/entity/Q512271","itemLabel":"château de Trausnitz","latitude":"48.531675138182","longitude":"12.152121628519"},{"item":"http://www.wikidata.org/entity/Q157298","itemLabel":"musée de Pergame","latitude":"52.521","longitude":"13.396"},{"item":"http://www.wikidata.org/entity/Q153171","itemLabel":"Grotte de Barberousse","latitude":"51.375555555556","longitude":"11.036388888889"},{"item":"http://www.wikidata.org/entity/Q161768","itemLabel":"1. Berliner DDR-Motorradmuseum","latitude":"52.5231","longitude":"13.4077"},{"item":"http://www.wikidata.org/entity/Q439518","itemLabel":"Altes Rathaus","latitude":"49.9861","longitude":"6.88745"},{"item":"http://www.wikidata.org/entity/Q422988","itemLabel":"Musée interactif Spiegelgasse","latitude":"50.0851","longitude":"8.24275"},{"item":"http://www.wikidata.org/entity/Q470564","itemLabel":"Hadamar","latitude":"50.4508","longitude":"8.04178"},{"item":"http://www.wikidata.org/entity/Q506465","itemLabel":"Reichsburg Cochem","latitude":"50.1422","longitude":"7.16694"},{"item":"http://www.wikidata.org/entity/Q531028","itemLabel":"château de Moyland","latitude":"51.7553","longitude":"6.23681"},{"item":"http://www.wikidata.org/entity/Q22600","itemLabel":"Museum SchPIRA","latitude":"49.316475","longitude":"8.439654"},{"item":"http://www.wikidata.org/entity/Q22573","itemLabel":"château de Berwartstein","latitude":"49.1083","longitude":"7.86278"},{"item":"http://www.wikidata.org/entity/Q463748","itemLabel":"Karl-Marx-Haus","latitude":"49.753889","longitude":"6.635556"},{"item":"http://www.wikidata.org/entity/Q22625","itemLabel":"musée allemand de la chaussure de Hauenstein","latitude":"49.18984","longitude":"7.85612"},{"item":"http://www.wikidata.org/entity/Q525226","itemLabel":"Musterhaus Am Horn","latitude":"50.9739","longitude":"11.3394"},{"item":"http://www.wikidata.org/entity/Q151456","itemLabel":"Bilderbuchmuseum","latitude":"50.8174","longitude":"7.16572"},{"item":"http://www.wikidata.org/entity/Q156316","itemLabel":"résidence de Würzburg","latitude":"49.79279761747","longitude":"9.9388890432453"},{"item":"http://www.wikidata.org/entity/Q131631","itemLabel":"château Nymphenburg","latitude":"48.158056","longitude":"11.503611"},{"item":"http://www.wikidata.org/entity/Q459493","itemLabel":"maison de Luther","latitude":"51.8642","longitude":"12.6525"},{"item":"http://www.wikidata.org/entity/Q157550","itemLabel":"abbaye et Altenmünster de Lorsch","latitude":"49.65369","longitude":"8.56858"},{"item":"http://www.wikidata.org/entity/Q457196","itemLabel":"Dialog im Dunkeln","latitude":"53.54619444","longitude":"10.00161111"},{"item":"http://www.wikidata.org/entity/Q227776","itemLabel":"Zucker-Museum","latitude":"52.5456","longitude":"13.3453"},{"item":"http://www.wikidata.org/entity/Q205072","itemLabel":"Zinnfigurenklause","latitude":"47.99277778","longitude":"7.85416667"},{"item":"http://www.wikidata.org/entity/Q390508","itemLabel":"mémorial de Berlin-Hohenschönhausen","latitude":"52.5417","longitude":"13.5011"},{"item":"http://www.wikidata.org/entity/Q153426","itemLabel":"château d'Eltz","latitude":"50.205","longitude":"7.3366666666667"},{"item":"http://www.wikidata.org/entity/Q198593","itemLabel":"Usine de briques Lage","latitude":"52.025","longitude":"8.77861111"},{"item":"http://www.wikidata.org/entity/Q157550","itemLabel":"abbaye et Altenmünster de Lorsch","latitude":"49.653888888889","longitude":"8.5688888888889"},{"item":"http://www.wikidata.org/entity/Q499901","itemLabel":"musée Wilhelm-Hack","latitude":"49.4801","longitude":"8.44407"},{"item":"http://www.wikidata.org/entity/Q450048","itemLabel":"abbaye de Schussenried","latitude":"48.0073","longitude":"9.65858"},{"item":"http://www.wikidata.org/entity/Q439212","itemLabel":"Altes Grassimuseum","latitude":"51.3336","longitude":"12.3747"},{"item":"http://www.wikidata.org/entity/Q469084","itemLabel":"maison du Climat","latitude":"53.5434","longitude":"8.5744"},{"item":"http://www.wikidata.org/entity/Q436381","itemLabel":"Alte Wasserkunst","latitude":"51.180666666667","longitude":"14.420647222222"},{"item":"http://www.wikidata.org/entity/Q256160","itemLabel":"maison royale de Schachen","latitude":"47.419697222222","longitude":"11.112586111111"},{"item":"http://www.wikidata.org/entity/Q520455","itemLabel":"musée alpin de Munich","latitude":"48.13519722","longitude":"11.58902222"},{"item":"http://www.wikidata.org/entity/Q375841","itemLabel":"Festung Peitz","latitude":"51.8574","longitude":"14.4094"},{"item":"http://www.wikidata.org/entity/Q570472","itemLabel":"musée de la Stasi","latitude":"52.51444444","longitude":"13.4875"},{"item":"http://www.wikidata.org/entity/Q469234","itemLabel":"musées de Dahlem","latitude":"52.456111","longitude":"13.292222"},{"item":"http://www.wikidata.org/entity/Q529069","itemLabel":"Kunstmuseum Bochum","latitude":"51.4874","longitude":"7.22122"},{"item":"http://www.wikidata.org/entity/Q228479","itemLabel":"Zugpferdemuseum","latitude":"53.43587","longitude":"10.55005"},{"item":"http://www.wikidata.org/entity/Q157316","itemLabel":"Neues Museum","latitude":"52.5202","longitude":"13.3976"},{"item":"http://www.wikidata.org/entity/Q22838","itemLabel":"Purrmann-Haus","latitude":"49.3185","longitude":"8.43482"},{"item":"http://www.wikidata.org/entity/Q385087","itemLabel":"Afrika-Haus Freiberg","latitude":"48.9378","longitude":"9.17942"},{"item":"http://www.wikidata.org/entity/Q576077","itemLabel":"Antikenmuseum im Schnoor","latitude":"53.0731","longitude":"8.81169"},{"item":"http://www.wikidata.org/entity/Q56007","itemLabel":"Baracke Wilhelmine","latitude":"53.2234","longitude":"8.54258"},{"item":"http://www.wikidata.org/entity/Q156803","itemLabel":"château de Moritzburg","latitude":"51.167572222222","longitude":"13.679611111111"},{"item":"http://www.wikidata.org/entity/Q394429","itemLabel":"Agnes-Miegel-Haus","latitude":"52.332","longitude":"9.37401"},{"item":"http://www.wikidata.org/entity/Q191399","itemLabel":"Zeppelin-Museum Zeppelinheim","latitude":"50.035","longitude":"8.6146"},{"item":"http://www.wikidata.org/entity/Q468496","itemLabel":"Reiss-Engelhorn-Museen","latitude":"49.4889","longitude":"8.46212"},{"item":"http://www.wikidata.org/entity/Q516770","itemLabel":"bâtiment du Bauhaus","latitude":"51.8392","longitude":"12.2267"},{"item":"http://www.wikidata.org/entity/Q153891","itemLabel":"Graacher Tor","latitude":"49.916972222222","longitude":"7.0758611111111"},{"item":"http://www.wikidata.org/entity/Q542084","itemLabel":"Vorderasiatisches Museum Berlin","latitude":"52.52069444","longitude":"13.39680556"},{"item":"http://www.wikidata.org/entity/Q560033","itemLabel":"centre de documentation sur le nazisme","latitude":"50.940615548427","longitude":"6.9501770929199"},{"item":"http://www.wikidata.org/entity/Q569445","itemLabel":"Martin-Gropius-Bau","latitude":"52.5066","longitude":"13.3818"},{"item":"http://www.wikidata.org/entity/Q156457","itemLabel":"château de Hohenzollern","latitude":"48.322988888889","longitude":"8.9683305555556"},{"item":"http://www.wikidata.org/entity/Q198590","itemLabel":"Ziegelei Erbs","latitude":"51.1693","longitude":"12.271"},{"item":"http://www.wikidata.org/entity/Q409578","itemLabel":"Aischgründer Karpfenmuseum","latitude":"49.581805555556","longitude":"10.607694444444"},{"item":"http://www.wikidata.org/entity/Q4152","itemLabel":"château de Neuschwanstein","latitude":"47.557488542843","longitude":"10.74944180794"},{"item":"http://www.wikidata.org/entity/Q576074","itemLabel":"Musée des antiquités de l'université de Leipzig","latitude":"51.3413","longitude":"12.3783"},{"item":"http://www.wikidata.org/entity/Q151545","itemLabel":"château de Wartbourg","latitude":"50.9662","longitude":"10.3065"},{"item":"http://www.wikidata.org/entity/Q573662","itemLabel":"palais de Marbre","latitude":"52.412672222222","longitude":"13.06975"},{"item":"http://www.wikidata.org/entity/Q464416","itemLabel":"musée de l'Homme de Néanderthal","latitude":"51.2269","longitude":"6.95056"},{"item":"http://www.wikidata.org/entity/Q233098","itemLabel":"musée d'histoire naturelle de Berlin","latitude":"52.5302","longitude":"13.3792"},{"item":"http://www.wikidata.org/entity/Q455354","itemLabel":"Deutsches Schifffahrtsmuseum","latitude":"53.5401","longitude":"8.577"},{"item":"http://www.wikidata.org/entity/Q1954607","itemLabel":"Museum für Archäologie und Ökologie Dithmarschen","latitude":"54.146","longitude":"9.29167"},{"item":"http://www.wikidata.org/entity/Q1954533","itemLabel":"Museum der Badekultur","latitude":"50.6904","longitude":"6.6478"},{"item":"http://www.wikidata.org/entity/Q1954455","itemLabel":"Museum Kulturgeschichte der Hand","latitude":"48.608611","longitude":"11.618778"},{"item":"http://www.wikidata.org/entity/Q1970386","itemLabel":"Naturmuseum Augsburg","latitude":"48.3708","longitude":"10.8955"},{"item":"http://www.wikidata.org/entity/Q1987982","itemLabel":"Niederlausitzer Museumseisenbahn","latitude":"51.7386773","longitude":"13.742152"},{"item":"http://www.wikidata.org/entity/Q1971634","itemLabel":"Naturwissenschaftliches Museum Flensburg","latitude":"54.7857","longitude":"9.43158"},{"item":"http://www.wikidata.org/entity/Q1954499","itemLabel":"Museum Uslar","latitude":"51.6583","longitude":"9.63361"},{"item":"http://www.wikidata.org/entity/Q1954423","itemLabel":"Museum Eisenheim","latitude":"51.5037","longitude":"6.86366"},{"item":"http://www.wikidata.org/entity/Q1954549","itemLabel":"Museum der Münze Berlin","latitude":"52.5728","longitude":"13.3298"},{"item":"http://www.wikidata.org/entity/Q1954691","itemLabel":"Museum für Vor- und Frühgeschichte de Sarrebruck","latitude":"49.2308","longitude":"6.9914"},{"item":"http://www.wikidata.org/entity/Q1954433","itemLabel":"Museum Festung Dresden","latitude":"51.0527","longitude":"13.7438"},{"item":"http://www.wikidata.org/entity/Q1954558","itemLabel":"Museum der Schwalm","latitude":"50.9109","longitude":"9.2347"},{"item":"http://www.wikidata.org/entity/Q1998605","itemLabel":"Nordfriesland Museum Husum","latitude":"54.47521","longitude":"9.05606"},{"item":"http://www.wikidata.org/entity/Q1954627","itemLabel":"Museum für historische Wehrtechnik","latitude":"49.4765","longitude":"11.2208"},{"item":"http://www.wikidata.org/entity/Q1954536","itemLabel":"Museum der Brotkultur","latitude":"48.400833","longitude":"9.99"},{"item":"http://www.wikidata.org/entity/Q1954470","itemLabel":"Museum Lothar Fischer","latitude":"49.2818","longitude":"11.463"},{"item":"http://www.wikidata.org/entity/Q1954717","itemLabel":"Musée Ludwig Roselius","latitude":"53.075","longitude":"8.80583"},{"item":"http://www.wikidata.org/entity/Q1969872","itemLabel":"Natur- und Landschaftsmuseum","latitude":"50.557","longitude":"6.76447"},{"item":"http://www.wikidata.org/entity/Q1954689","itemLabel":"Museum für Vor- und Frühgeschichte (Köln)","latitude":"50.9237","longitude":"6.96698"},{"item":"http://www.wikidata.org/entity/Q1954807","itemLabel":"Museumsdorf Bayerischer Wald","latitude":"48.739524053369","longitude":"13.351717920313"},{"item":"http://www.wikidata.org/entity/Q1954562","itemLabel":"Museum der Stadt Neustadt in Holstein","latitude":"54.1094","longitude":"10.8164"},{"item":"http://www.wikidata.org/entity/Q2001665","itemLabel":"Nostalgie-Museum","latitude":"48.98899","longitude":"12.451072"},{"item":"http://www.wikidata.org/entity/Q1954699","itemLabel":"Museum für brandenburgische Kirchen- und Kulturgeschichte des Mittelalters","latitude":"52.2627","longitude":"12.2868"},{"item":"http://www.wikidata.org/entity/Q1954571","itemLabel":"Weltkulturen Museum","latitude":"50.1056","longitude":"8.67889"},{"item":"http://www.wikidata.org/entity/Q1954630","itemLabel":"Museum für Glaskunst Lauscha","latitude":"50.477","longitude":"11.1595"},{"item":"http://www.wikidata.org/entity/Q1954796","itemLabel":"Museumsbauernhof Wennerstorf","latitude":"53.3611","longitude":"9.77732"},{"item":"http://www.wikidata.org/entity/Q1970368","itemLabel":"Naturkundliches Museum (Schweinfurt)","latitude":"50.04359","longitude":"10.2373"},{"item":"http://www.wikidata.org/entity/Q1954606","itemLabel":"musée de la Navigation antique","latitude":"49.9941","longitude":"8.28042"},{"item":"http://www.wikidata.org/entity/Q1954642","itemLabel":"Museum für Kommunikation Hamburg","latitude":"53.55788889","longitude":"9.98797222"},{"item":"http://www.wikidata.org/entity/Q1954645","itemLabel":"Museum für Kunst und Technik des 19. Jahrhunderts","latitude":"48.7591","longitude":"8.23803"},{"item":"http://www.wikidata.org/entity/Q1954536","itemLabel":"Museum der Brotkultur","latitude":"48.401","longitude":"9.99008"},{"item":"http://www.wikidata.org/entity/Q1954769","itemLabel":"Museum und Archiv der Deutschen Gesellschaft für Urologie","latitude":"51.2513","longitude":"6.76643"},{"item":"http://www.wikidata.org/entity/Q1954505","itemLabel":"Museum für Wasser, Bad und Design","latitude":"48.2908","longitude":"8.34726"},{"item":"http://www.wikidata.org/entity/Q1954612","itemLabel":"Museum für Druckkunst","latitude":"51.3288","longitude":"12.3433"},{"item":"http://www.wikidata.org/entity/Q1954678","itemLabel":"Museum für Ur- und Frühgeschichte Frauwalde","latitude":"51.4017437","longitude":"12.9192222"},{"item":"http://www.wikidata.org/entity/Q1954818","itemLabel":"Museumsfeldbahn Leipzig-Lindenau","latitude":"51.335","longitude":"12.3005"},{"item":"http://www.wikidata.org/entity/Q1957985","itemLabel":"Mönchguter Küstenfischermuseum","latitude":"54.3538","longitude":"13.6983"},{"item":"http://www.wikidata.org/entity/Q1954508","itemLabel":"Museum Wäschefabrik","latitude":"52.0212","longitude":"8.5422"},{"item":"http://www.wikidata.org/entity/Q1954579","itemLabel":"Musée de la guerre de Trente Ans","latitude":"53.1593","longitude":"12.4857"},{"item":"http://www.wikidata.org/entity/Q1997817","itemLabel":"Norddeutsches Krippenmuseum","latitude":"53.7916","longitude":"12.1782"},{"item":"http://www.wikidata.org/entity/Q1954675","itemLabel":"Musée d'histoire de la ville (Fribourg-en-Brisgau)","latitude":"47.99493","longitude":"7.85315"},{"item":"http://www.wikidata.org/entity/Q1954486","itemLabel":"Museum Schloss Rosenstein","latitude":"48.8005","longitude":"9.206"},{"item":"http://www.wikidata.org/entity/Q1961427","itemLabel":"Centre de documentation sur l'histoire du national-socialisme","latitude":"48.14527778","longitude":"11.5675"},{"item":"http://www.wikidata.org/entity/Q1954775","itemLabel":"Museum vaterländischer Alterthümer","latitude":"54.3251","longitude":"10.1396"},{"item":"http://www.wikidata.org/entity/Q1954720","itemLabel":"Museum à Spital","latitude":"50.5885","longitude":"8.9623"},{"item":"http://www.wikidata.org/entity/Q1954429","itemLabel":"Museum Europäischer Kunst","latitude":"50.8081","longitude":"6.64492"},{"item":"http://www.wikidata.org/entity/Q1954527","itemLabel":"Museum der 50er Jahre (Bremerhaven)","latitude":"53.5907","longitude":"8.54988"},{"item":"http://www.wikidata.org/entity/Q1954493","itemLabel":"Museum St. Ingbert","latitude":"49.2789","longitude":"7.1124"},{"item":"http://www.wikidata.org/entity/Q1979646","itemLabel":"Neue Mühle (Erfurt)","latitude":"50.9767","longitude":"11.03"},{"item":"http://www.wikidata.org/entity/Q1954481","itemLabel":"Musée Quintana","latitude":"48.6688","longitude":"13.0785"},{"item":"http://www.wikidata.org/entity/Q1954510","itemLabel":"Museum Zitadelle","latitude":"50.9255","longitude":"6.36006"},{"item":"http://www.wikidata.org/entity/Q1954444","itemLabel":"Museum Hofmühle Immenstadt","latitude":"47.561810498382","longitude":"10.221449310091"},{"item":"http://www.wikidata.org/entity/Q1954669","itemLabel":"Museum für Puppentheaterkultur","latitude":"49.8461","longitude":"7.84713"},{"item":"http://www.wikidata.org/entity/Q1954458","itemLabel":"Museum Künstlerkolonie Darmstadt","latitude":"49.8765","longitude":"8.66819"},{"item":"http://www.wikidata.org/entity/Q1954451","itemLabel":"Museum KeltenKeller","latitude":"50.6202","longitude":"8.59447"},{"item":"http://www.wikidata.org/entity/Q1954707","itemLabel":"Museum für dörfliche Alltagskultur","latitude":"49.17377778","longitude":"7.20719444"},{"item":"http://www.wikidata.org/entity/Q1971642","itemLabel":"Naturzentrum Eifel","latitude":"50.4898","longitude":"6.62818"},{"item":"http://www.wikidata.org/entity/Q1954668","itemLabel":"Musée d'art moderne (Fribourg-en-Brisgau)","latitude":"47.99277778","longitude":"7.8525"},{"item":"http://www.wikidata.org/entity/Q1970349","itemLabel":"Naturkunde-Museum Bielefeld","latitude":"52.0165","longitude":"8.52857"},{"item":"http://www.wikidata.org/entity/Q1954625","itemLabel":"Museum für Gegenwartskunst","latitude":"50.8739","longitude":"8.02243"},{"item":"http://www.wikidata.org/entity/Q1954666","itemLabel":"Museum für Naturkunde Magdeburg","latitude":"52.1256","longitude":"11.6295"},{"item":"http://www.wikidata.org/entity/Q1954652","itemLabel":"Museum für Meereskunde","latitude":"52.5198","longitude":"13.3912"},{"item":"http://www.wikidata.org/entity/Q1955936","itemLabel":"maison de la mère de Beethoven","latitude":"50.359825","longitude":"7.6109"},{"item":"http://www.wikidata.org/entity/Q1970271","itemLabel":"Natureum Darßer Ort","latitude":"54.4728","longitude":"12.5028"},{"item":"http://www.wikidata.org/entity/Q1954838","itemLabel":"Museumslandschaft Deilbachtal","latitude":"51.3828","longitude":"7.10167"},{"item":"http://www.wikidata.org/entity/Q1954544","itemLabel":"Museum der Göttinger Chemie","latitude":"51.5583","longitude":"9.94953"},{"item":"http://www.wikidata.org/entity/Q1954644","itemLabel":"musée de la communication de Nuremberg","latitude":"49.44555556","longitude":"11.07444444"},{"item":"http://www.wikidata.org/entity/Q1954616","itemLabel":"Museum für Frühindustrialisierung","latitude":"51.2661","longitude":"7.18989"},{"item":"http://www.wikidata.org/entity/Q1954721","itemLabel":"Museum im Ursula-Stift und Schmiede am Stift","latitude":"48.6412","longitude":"9.95754"},{"item":"http://www.wikidata.org/entity/Q1970394","itemLabel":"Naturmuseum Lüneburg","latitude":"53.2472","longitude":"10.404"},{"item":"http://www.wikidata.org/entity/Q1954671","itemLabel":"Museum für Regionalgeschichte und Kunst","latitude":"53.4768","longitude":"9.70171"},{"item":"http://www.wikidata.org/entity/Q1954723","itemLabel":"Museum im Zeughaus","latitude":"52.7266","longitude":"8.27776"},{"item":"http://www.wikidata.org/entity/Q1954479","itemLabel":"Museum Pegau","latitude":"51.166757183263","longitude":"12.255546646027"},{"item":"http://www.wikidata.org/entity/Q1954452","itemLabel":"Museum Klaushäusl","latitude":"47.785009062976","longitude":"12.426902887185"},{"item":"http://www.wikidata.org/entity/Q1988652","itemLabel":"Musée d'art et d'histoire de Basse-Saxe","latitude":"53.1377","longitude":"8.21638"},{"item":"http://www.wikidata.org/entity/Q1954566","itemLabel":"musée de l'université de Tübingen","latitude":"48.51949","longitude":"9.05079"},{"item":"http://www.wikidata.org/entity/Q1954677","itemLabel":"Museum für Thüringer Volkskunde. Erfurt, Allemagne","latitude":"50.9814","longitude":"11.0356"},{"item":"http://www.wikidata.org/entity/Q1987600","itemLabel":"Niederbayerische Freilichtmuseen Massing und Finsterau","latitude":"48.935","longitude":"13.5631"},{"item":"http://www.wikidata.org/entity/Q1954487","itemLabel":"Musée du château de Fechenbach","latitude":"49.8997","longitude":"8.83833"},{"item":"http://www.wikidata.org/entity/Q1954556","itemLabel":"Museum der Salzmannschule Schnepfenthal","latitude":"50.8841","longitude":"10.5738"},{"item":"http://www.wikidata.org/entity/Q1970276","itemLabel":"Natureum Niederelbe","latitude":"53.8228","longitude":"9.03519"},{"item":"http://www.wikidata.org/entity/Q1955082","itemLabel":"Musikantenland-Museum","latitude":"49.5557","longitude":"7.35581"},{"item":"http://www.wikidata.org/entity/Q1954725","itemLabel":"LWL-Museum in der Kaiserpfalz","latitude":"51.7194","longitude":"8.75528"},{"item":"http://www.wikidata.org/entity/Q1954521","itemLabel":"Museum am Löwentor","latitude":"48.8053","longitude":"9.19028"},{"item":"http://www.wikidata.org/entity/Q1954573","itemLabel":"Museum der historischen Waschtechnik","latitude":"52.0766","longitude":"7.77841"},{"item":"http://www.wikidata.org/entity/Q1954810","itemLabel":"Museumsdorf Volksdorf","latitude":"53.64972222","longitude":"10.16833333"},{"item":"http://www.wikidata.org/entity/Q1954715","itemLabel":"Museum im Malhaus","latitude":"47.5667","longitude":"9.62989"},{"item":"http://www.wikidata.org/entity/Q1954503","itemLabel":"Museum Wilnsdorf","latitude":"50.8168","longitude":"8.11056"},{"item":"http://www.wikidata.org/entity/Q1954541","itemLabel":"Museum der Deutschen Binnenschifffahrt","latitude":"51.46","longitude":"6.73"},{"item":"http://www.wikidata.org/entity/Q1954697","itemLabel":"Museum für aktuelle Kunst – Sammlung Hurrle","latitude":"48.4923","longitude":"7.99672"},{"item":"http://www.wikidata.org/entity/Q1954513","itemLabel":"Museum am Dom Trier","latitude":"49.7566","longitude":"6.64491"},{"item":"http://www.wikidata.org/entity/Q1954495","itemLabel":"Museum Steinacher Spielzeugschachtel","latitude":"50.4325","longitude":"11.1561"},{"item":"http://www.wikidata.org/entity/Q1954836","itemLabel":"Cour du musée de Winsen","latitude":"52.6803","longitude":"9.92056"},{"item":"http://www.wikidata.org/entity/Q1970389","itemLabel":"Museum Natur und Mensch (Fribourg-en-Brisgau)","latitude":"47.99331","longitude":"7.85159"},{"item":"http://www.wikidata.org/entity/Q1341459","itemLabel":"Instrumentarium","latitude":"49.0691","longitude":"7.79885"},{"item":"http://www.wikidata.org/entity/Q1352513","itemLabel":"Historisches Museum Bremerhaven","latitude":"53.5388","longitude":"8.58565"},{"item":"http://www.wikidata.org/entity/Q1297033","itemLabel":"Schloss Wolkenburg","latitude":"50.9023","longitude":"12.6738"},{"item":"http://www.wikidata.org/entity/Q1300457","itemLabel":"Museum der Grafschaft Rantzau","latitude":"53.7829","longitude":"9.76021"},{"item":"http://www.wikidata.org/entity/Q1244885","itemLabel":"Dorfmuseum Münkeboe","latitude":"53.5152","longitude":"7.37359"},{"item":"http://www.wikidata.org/entity/Q1354757","itemLabel":"Erinnerungsstätte Matthias Erzberger","latitude":"48.3593","longitude":"9.47764"},{"item":"http://www.wikidata.org/entity/Q1343903","itemLabel":"musées des pompiers à Francfort-sur-le-Main","latitude":"50.1781","longitude":"8.66083"},{"item":"http://www.wikidata.org/entity/Q1274894","itemLabel":"Europäisches Spargelmuseum","latitude":"48.5596908","longitude":"11.2640254"},{"item":"http://www.wikidata.org/entity/Q1283434","itemLabel":"Alamannenmuseum Ellwangen","latitude":"48.9641","longitude":"10.1278"},{"item":"http://www.wikidata.org/entity/Q1359753","itemLabel":"Tricensimae","latitude":"51.6667","longitude":"6.45"},{"item":"http://www.wikidata.org/entity/Q1350085","itemLabel":"Erfatal-Museum","latitude":"49.609","longitude":"9.47419"},{"item":"http://www.wikidata.org/entity/Q1349004","itemLabel":"Heimatstube Reichenberg","latitude":"48.3611","longitude":"10.8975"},{"item":"http://www.wikidata.org/entity/Q1320374","itemLabel":"Europäisches Brotmuseum","latitude":"51.5689","longitude":"10.0997"},{"item":"http://www.wikidata.org/entity/Q1274757","itemLabel":"Städtisches Museum Seesen","latitude":"51.8926","longitude":"10.172"},{"item":"http://www.wikidata.org/entity/Q1354653","itemLabel":"Erinnerungs- und Gedenkstätte Wewelsburg 1933–1945","latitude":"51.6066","longitude":"8.65254"},{"item":"http://www.wikidata.org/entity/Q1292862","itemLabel":"Museum Industriekultur","latitude":"52.3151","longitude":"8.00886"},{"item":"http://www.wikidata.org/entity/Q1250302","itemLabel":"Motorradmuseum Heiner Beckmann","latitude":"51.9626","longitude":"8.14011"},{"item":"http://www.wikidata.org/entity/Q1332706","itemLabel":"Landesmuseum Württemberg","latitude":"48.777","longitude":"9.17947"},{"item":"http://www.wikidata.org/entity/Q1283363","itemLabel":"Vorpommersches Kartoffelmuseum","latitude":"54.095091666667","longitude":"12.757686111111"},{"item":"http://www.wikidata.org/entity/Q1358031","itemLabel":"Museum am Meer","latitude":"54.1276","longitude":"8.8635"},{"item":"http://www.wikidata.org/entity/Q1297463","itemLabel":"Eggemuseum","latitude":"51.7626","longitude":"8.93517"},{"item":"http://www.wikidata.org/entity/Q1325723","itemLabel":"Schillerhaus Weimar","latitude":"50.9789","longitude":"11.3278"},{"item":"http://www.wikidata.org/entity/Q1257975","itemLabel":"musée des Trois Pays","latitude":"47.60985556","longitude":"7.65989722"},{"item":"http://www.wikidata.org/entity/Q1302561","itemLabel":"Orgelbaumuseum Schloss Hanstein","latitude":"50.4586","longitude":"10.235"},{"item":"http://www.wikidata.org/entity/Q1278415","itemLabel":"Ernst Barlach Museum Ratzeburg","latitude":"53.6985","longitude":"10.7732"},{"item":"http://www.wikidata.org/entity/Q1352684","itemLabel":"Erich Kästner Museum","latitude":"51.0638","longitude":"13.7457"},{"item":"http://www.wikidata.org/entity/Q1356357","itemLabel":"Technikmuseum Magdeburg","latitude":"52.1041","longitude":"11.626"},{"item":"http://www.wikidata.org/entity/Q1339301","itemLabel":"Schifflersgrund","latitude":"51.2853","longitude":"9.99361"},{"item":"http://www.wikidata.org/entity/Q1265226","itemLabel":"Volkskundemuseum in Schönberg","latitude":"53.844626","longitude":"10.933607"},{"item":"http://www.wikidata.org/entity/Q1287060","itemLabel":"Museum Tuch + Technik Neumünster","latitude":"54.0716","longitude":"9.98119"},{"item":"http://www.wikidata.org/entity/Q1260954","itemLabel":"Druckmuseum/Haus für Industriekultur","latitude":"49.8809","longitude":"8.63618"},{"item":"http://www.wikidata.org/entity/Q1294333","itemLabel":"Fürstenhäusle","latitude":"47.69453611","longitude":"9.27540278"},{"item":"http://www.wikidata.org/entity/Q1324758","itemLabel":"Kutschenmuseum Hinterstein","latitude":"47.4748","longitude":"10.4084"},{"item":"http://www.wikidata.org/entity/Q1349581","itemLabel":"Erdöl-Erdgas-Museum Twist","latitude":"52.6473","longitude":"7.09511"},{"item":"http://www.wikidata.org/entity/Q1307805","itemLabel":"musée municipal de Münster","latitude":"51.960933","longitude":"7.633074"},{"item":"http://www.wikidata.org/entity/Q1315993","itemLabel":"Elstermühle Plessa","latitude":"51.4628","longitude":"13.63"},{"item":"http://www.wikidata.org/entity/Q1244879","itemLabel":"Musée du village de Gahlenz","latitude":"50.8368","longitude":"13.2224"},{"item":"http://www.wikidata.org/entity/Q1354753","itemLabel":"Erinnerungsort Topf & Söhne","latitude":"50.9723","longitude":"11.0487"},{"item":"http://www.wikidata.org/entity/Q1318105","itemLabel":"Freilichtmuseum Ammerländer Bauernhaus","latitude":"53.182947","longitude":"8.017652"},{"item":"http://www.wikidata.org/entity/Q1260001","itemLabel":"Körnermuseum","latitude":"51.059","longitude":"13.7386"},{"item":"http://www.wikidata.org/entity/Q1317292","itemLabel":"Hammermuseum Frankfurt","latitude":"50.1074","longitude":"8.66802"},{"item":"http://www.wikidata.org/entity/Q1252305","itemLabel":"Landschafts-Informationszentrum","latitude":"51.49484","longitude":"8.04821"},{"item":"http://www.wikidata.org/entity/Q1339736","itemLabel":"Emsland Moormuseum","latitude":"52.6234","longitude":"7.18556"},{"item":"http://www.wikidata.org/entity/Q1288040","itemLabel":"Portable Art Museum","latitude":"50.788","longitude":"6.49223"},{"item":"http://www.wikidata.org/entity/Q1321861","itemLabel":"Museum Haldensleben","latitude":"52.2894","longitude":"11.4111"},{"item":"http://www.wikidata.org/entity/Q1313064","itemLabel":"Eisenkunstguss-Museum Büdelsdorf","latitude":"54.3134","longitude":"9.66712"},{"item":"http://www.wikidata.org/entity/Q1250530","itemLabel":"Fledermaus-Museum Julianenhof","latitude":"52.5877","longitude":"14.1187"},{"item":"http://www.wikidata.org/entity/Q1342514","itemLabel":"Schulze-Delitzsch-Haus – Deutsches Genossenschaftsmuseum","latitude":"51.5221","longitude":"12.3345"},{"item":"http://www.wikidata.org/entity/Q1274463","itemLabel":"EFA MOBILE ZEITEN","latitude":"47.9964","longitude":"12.3074"},{"item":"http://www.wikidata.org/entity/Q1282558","itemLabel":"Allgäuer Bergbauernmuseum","latitude":"47.614619545927","longitude":"10.175927793535"},{"item":"http://www.wikidata.org/entity/Q1343014","itemLabel":"Museum für Mineralogie und Geologie Dresden","latitude":"51.1289","longitude":"13.79"},{"item":"http://www.wikidata.org/entity/Q1258512","itemLabel":"Dresdner Fußballmuseum","latitude":"51.0592","longitude":"13.7419"},{"item":"http://www.wikidata.org/entity/Q1253547","itemLabel":"musée d'histoire naturelle de Chemnitz","latitude":"50.8309","longitude":"12.9233"},{"item":"http://www.wikidata.org/entity/Q1341197","itemLabel":"Energie-Museum Berlin","latitude":"52.4436","longitude":"13.33"},{"item":"http://www.wikidata.org/entity/Q1296155","itemLabel":"Landsynagoge Heubach","latitude":"50.3839","longitude":"9.71794"},{"item":"http://www.wikidata.org/entity/Q1305061","itemLabel":"musée d’Art populaire saxon avec sa collection de théâtre de marionnettes","latitude":"51.0578","longitude":"13.7439"},{"item":"http://www.wikidata.org/entity/Q1271054","itemLabel":"Museum für Kommunikation Berlin","latitude":"52.5097","longitude":"13.3869"},{"item":"http://www.wikidata.org/entity/Q1305815","itemLabel":"Fränkisches Freilandmuseum Fladungen","latitude":"50.5219521","longitude":"10.1519331"},{"item":"http://www.wikidata.org/entity/Q1326181","itemLabel":"Electrum","latitude":"53.464156","longitude":"9.982038"},{"item":"http://www.wikidata.org/entity/Q1278601","itemLabel":"Weizenglasmuseum Nürnberg","latitude":"49.464726","longitude":"11.172473"},{"item":"http://www.wikidata.org/entity/Q1249029","itemLabel":"Museum für Büro- und Kommunikationsgeschichte","latitude":"49.893056","longitude":"10.886667"},{"item":"http://www.wikidata.org/entity/Q1328893","itemLabel":"Kunstforum Ostdeutsche Galerie","latitude":"49.0198","longitude":"12.0822"},{"item":"http://www.wikidata.org/entity/Q1273976","itemLabel":"Glasmuseum Immenhausen","latitude":"51.4274","longitude":"9.4656"},{"item":"http://www.wikidata.org/entity/Q1360068","itemLabel":"KraftWerk – Dresdner Energiemuseum","latitude":"51.05338","longitude":"13.72207"},{"item":"http://www.wikidata.org/entity/Q1321063","itemLabel":"Eiszeitmuseum","latitude":"54.3031","longitude":"10.5623"},{"item":"http://www.wikidata.org/entity/Q1344151","itemLabel":"Orgelbaumuseum Klosterhäseler","latitude":"51.162561","longitude":"11.6112"},{"item":"http://www.wikidata.org/entity/Q1257540","itemLabel":"Kornbrennereimuseum","latitude":"51.9833","longitude":"7.78528"},{"item":"http://www.wikidata.org/entity/Q1270146","itemLabel":"Herbergsmuseum","latitude":"51.788247222222","longitude":"10.957038888889"},{"item":"http://www.wikidata.org/entity/Q1351312","itemLabel":"Reuter-Wagner-Museum","latitude":"50.968","longitude":"10.3196"},{"item":"http://www.wikidata.org/entity/Q1341274","itemLabel":"musée de l'énergie de Knappenrode","latitude":"51.3975","longitude":"14.3292"},{"item":"http://www.wikidata.org/entity/Q1341862","itemLabel":"Römermuseum Mengen-Ennetach","latitude":"48.0523","longitude":"9.31857"},{"item":"http://www.wikidata.org/entity/Q1359068","itemLabel":"Kunstmuseum Bayreuth","latitude":"49.9438899","longitude":"11.5746336"},{"item":"http://www.wikidata.org/entity/Q1278232","itemLabel":"Leonhardi-Museum","latitude":"51.0551","longitude":"13.8168"},{"item":"http://www.wikidata.org/entity/Q1344377","itemLabel":"Fastnachtsmuseum Narrenburg","latitude":"48.217","longitude":"9.23328"},{"item":"http://www.wikidata.org/entity/Q1280968","itemLabel":"Stadtmuseum Gera","latitude":"50.8766","longitude":"12.0806"},{"item":"http://www.wikidata.org/entity/Q1295010","itemLabel":"Steuermuseum","latitude":"50.8316","longitude":"6.88317"},{"item":"http://www.wikidata.org/entity/Q1354762","itemLabel":"Erinnerungsstätte für die Freiheitsbewegungen in der deutschen Geschichte","latitude":"48.8586","longitude":"8.20444"},{"item":"http://www.wikidata.org/entity/Q1423672","itemLabel":"Museum Industriekultur","latitude":"49.4611","longitude":"11.1108"},{"item":"http://www.wikidata.org/entity/Q1409289","itemLabel":"Museum für Sepulkralkultur","latitude":"51.3092","longitude":"9.48806"},{"item":"http://www.wikidata.org/entity/Q1402976","itemLabel":"Hoesch-Museum","latitude":"51.5297","longitude":"7.48306"},{"item":"http://www.wikidata.org/entity/Q1409387","itemLabel":"Feuchtmayer Museum","latitude":"47.761531","longitude":"9.283664"},{"item":"http://www.wikidata.org/entity/Q1417534","itemLabel":"Haus Haller Straße 3","latitude":"49.0802","longitude":"9.46103"},{"item":"http://www.wikidata.org/entity/Q1457173","itemLabel":"Theodor-Storm-Haus","latitude":"54.4757","longitude":"9.04766"},{"item":"http://www.wikidata.org/entity/Q1389050","itemLabel":"Pfahlheimer Bauernstube","latitude":"48.9646","longitude":"10.2585"},{"item":"http://www.wikidata.org/entity/Q1472937","itemLabel":"Fuggereimuseum","latitude":"48.3686223","longitude":"10.9044921"},{"item":"http://www.wikidata.org/entity/Q1447855","itemLabel":"Fürstliche Schatzkammer Thurn und Taxis","latitude":"49.015514","longitude":"12.091955"},{"item":"http://www.wikidata.org/entity/Q1483652","itemLabel":"château de Detmold","latitude":"51.9362","longitude":"8.87803"},{"item":"http://www.wikidata.org/entity/Q1388992","itemLabel":"Museum für bergmännische Volkskunst","latitude":"50.5942","longitude":"12.6418"},{"item":"http://www.wikidata.org/entity/Q1428566","itemLabel":"Fliegermuseum Bad Wörishofen","latitude":"48.0112","longitude":"10.6022"},{"item":"http://www.wikidata.org/entity/Q1402333","itemLabel":"Feldbahnmuseum Oekoven","latitude":"51.0621","longitude":"6.65125"},{"item":"http://www.wikidata.org/entity/Q1377395","itemLabel":"Schillerhaus","latitude":"51.3588","longitude":"12.3628"},{"item":"http://www.wikidata.org/entity/Q1459154","itemLabel":"Rheinhessisches Fahrradmuseum","latitude":"49.9545","longitude":"8.01671"},{"item":"http://www.wikidata.org/entity/Q1481064","itemLabel":"Historisches Kaufhaus","latitude":"53.485","longitude":"8.43694"},{"item":"http://www.wikidata.org/entity/Q1457881","itemLabel":"Friedrich-Wilhelm-Weber-Museum","latitude":"51.7494","longitude":"9.05361"},{"item":"http://www.wikidata.org/entity/Q1466755","itemLabel":"Niedersächsisches Spargelmuseum","latitude":"52.6376","longitude":"9.20913"},{"item":"http://www.wikidata.org/entity/Q1360933","itemLabel":"Naturhistorisches Museum. Lübeck, Allemagne","latitude":"53.860277777778","longitude":"10.685555555556"},{"item":"http://www.wikidata.org/entity/Q1473497","itemLabel":"Palais de la ville de Fulda","latitude":"50.5539","longitude":"9.67556"},{"item":"http://www.wikidata.org/entity/Q1384152","itemLabel":"Hammerschmiede Gnuse","latitude":"52.137","longitude":"8.85898"},{"item":"http://www.wikidata.org/entity/Q1409667","itemLabel":"Feuerschiff Borkumriff","latitude":"53.71666667","longitude":"6.38333333"},{"item":"http://www.wikidata.org/entity/Q1454521","itemLabel":"Freilichtmuseum Glentleiten","latitude":"47.6656","longitude":"11.2864"},{"item":"http://www.wikidata.org/entity/Q1471212","itemLabel":"Fränkische Schweiz-Museum","latitude":"49.7858","longitude":"11.3607"},{"item":"http://www.wikidata.org/entity/Q1409666","itemLabel":"Amrumbank II","latitude":"53.366111111111","longitude":"7.2063888888889"},{"item":"http://www.wikidata.org/entity/Q1464783","itemLabel":"Friesisches Museum Niebüll-Deezbüll","latitude":"54.78","longitude":"8.82231"},{"item":"http://www.wikidata.org/entity/Q1414278","itemLabel":"Heine-Haus","latitude":"53.546258","longitude":"9.92872"},{"item":"http://www.wikidata.org/entity/Q1481121","itemLabel":"Museum Kösching","latitude":"48.810333","longitude":"11.501111"},{"item":"http://www.wikidata.org/entity/Q1384480","itemLabel":"Wiesentäler Textilmuseum","latitude":"47.707","longitude":"7.856"},{"item":"http://www.wikidata.org/entity/Q1365402","itemLabel":"Hexenturm","latitude":"52.2746","longitude":"11.8616"},{"item":"http://www.wikidata.org/entity/Q1483652","itemLabel":"château de Detmold","latitude":"51.9365","longitude":"8.87707"},{"item":"http://www.wikidata.org/entity/Q1373796","itemLabel":"Eulenspiegel-Museum","latitude":"53.6308","longitude":"10.6923"},{"item":"http://www.wikidata.org/entity/Q1435513","itemLabel":"Musée en plein air de Schwerin-Mueß","latitude":"53.6003","longitude":"11.4786"},{"item":"http://www.wikidata.org/entity/Q1448165","itemLabel":"musée Franz Marc","latitude":"47.650582","longitude":"11.36523"},{"item":"http://www.wikidata.org/entity/Q1388353","itemLabel":"Kulturgeschichtliches Museum Osnabrück","latitude":"52.2754","longitude":"8.03858"},{"item":"http://www.wikidata.org/entity/Q1450385","itemLabel":"Franziskanermuseum Villingen-Schwenningen","latitude":"48.0595","longitude":"8.45682"},{"item":"http://www.wikidata.org/entity/Q1382154","itemLabel":"Goethedenkmal","latitude":"50.6872","longitude":"10.9141"},{"item":"http://www.wikidata.org/entity/Q1391782","itemLabel":"Museum der Stadt Butzbach","latitude":"50.433","longitude":"8.67358"},{"item":"http://www.wikidata.org/entity/Q1410938","itemLabel":"Fichtelgebirgemuseum","latitude":"50.0389","longitude":"12.0033"},{"item":"http://www.wikidata.org/entity/Q1393762","itemLabel":"Museum zur Geschichte von Christen und Juden","latitude":"48.2303","longitude":"9.8892"},{"item":"http://www.wikidata.org/entity/Q1419951","itemLabel":"Fischer- und Webermuseum Steinhude mit Spielzeugmuseum","latitude":"52.455","longitude":"9.35255"},{"item":"http://www.wikidata.org/entity/Q1387193","itemLabel":"Meerrettich-Museum","latitude":"49.6574","longitude":"11.0329"},{"item":"http://www.wikidata.org/entity/Q1411982","itemLabel":"Ludwig Galerie Schloss Oberhausen","latitude":"51.4919","longitude":"6.86083"},{"item":"http://www.wikidata.org/entity/Q1452889","itemLabel":"Museum für Lackkunst","latitude":"51.9578","longitude":"7.63125"},{"item":"http://www.wikidata.org/entity/Q1419394","itemLabel":"Zisterzienserinnenkloster Mariensee (Neustadt am Rübenberge)","latitude":"52.5586","longitude":"9.48667"},{"item":"http://www.wikidata.org/entity/Q1437462","itemLabel":"Luise","latitude":"54.3345","longitude":"13.7362"},{"item":"http://www.wikidata.org/entity/Q1443527","itemLabel":"Heimatmuseum Münstermaifeld","latitude":"50.247","longitude":"7.3624"},{"item":"http://www.wikidata.org/entity/Q1434988","itemLabel":"Focke-Windkanal","latitude":"53.0806","longitude":"8.816"},{"item":"http://www.wikidata.org/entity/Q1454485","itemLabel":"Freilicht- und Erlebnismuseum Ostfalen","latitude":"52.137145","longitude":"10.649317"},{"item":"http://www.wikidata.org/entity/Q1362265","itemLabel":"Erstes Deutsches Fliesenmuseum Boizenburg","latitude":"53.3739","longitude":"10.7218"},{"item":"http://www.wikidata.org/entity/Q1434990","itemLabel":"Focke-Museum","latitude":"53.0925","longitude":"8.86417"},{"item":"http://www.wikidata.org/entity/Q1391590","itemLabel":"Fachwerkmuseum (Quedlinburg)","latitude":"51.7883","longitude":"11.1405"},{"item":"http://www.wikidata.org/entity/Q1399618","itemLabel":"Geiseltalmuseum","latitude":"51.4844","longitude":"11.9654"},{"item":"http://www.wikidata.org/entity/Q1362762","itemLabel":"musée Erwin Hymer","latitude":"47.937316","longitude":"9.760461"},{"item":"http://www.wikidata.org/entity/Q1433963","itemLabel":"Flugplatzmuseum Cottbus","latitude":"51.765503","longitude":"14.295296"},{"item":"http://www.wikidata.org/entity/Q1409667","itemLabel":"Feuerschiff Borkumriff","latitude":"53.5622","longitude":"6.7474"},{"item":"http://www.wikidata.org/entity/Q1473013","itemLabel":"Fuhlrott-Museum","latitude":"51.2553","longitude":"7.13889"},{"item":"http://www.wikidata.org/entity/Q1454518","itemLabel":"Römermuseum Güglingen","latitude":"49.0617","longitude":"9.00472"},{"item":"http://www.wikidata.org/entity/Q1471189","itemLabel":"Fränkische Galerie","latitude":"50.2444","longitude":"11.3276"},{"item":"http://www.wikidata.org/entity/Q1457383","itemLabel":"Heimatmuseum Moringen","latitude":"51.698","longitude":"9.8701"},{"item":"http://www.wikidata.org/entity/Q1465416","itemLabel":"Fritz-Reuter-Literaturmuseum","latitude":"53.6953","longitude":"12.9088"},{"item":"http://www.wikidata.org/entity/Q1372459","itemLabel":"Atomkeller-Museum","latitude":"48.3668","longitude":"8.80404"},{"item":"http://www.wikidata.org/entity/Q1436503","itemLabel":"Martin Luthers Geburtshaus","latitude":"51.52694","longitude":"11.55007"},{"item":"http://www.wikidata.org/entity/Q1430299","itemLabel":"MehlWelten Museum","latitude":"53.5144","longitude":"11.0723"},{"item":"http://www.wikidata.org/entity/Q1392855","itemLabel":"Fahrzeugmuseum Marxzell","latitude":"48.8608","longitude":"8.44787"},{"item":"http://www.wikidata.org/entity/Q1454516","itemLabel":"Freilichtmuseum Beuren","latitude":"48.5758","longitude":"9.41417"},{"item":"http://www.wikidata.org/entity/Q1483635","itemLabel":"Fürstliche Hofreitschule Bückeburg","latitude":"52.259846","longitude":"9.046372"},{"item":"http://www.wikidata.org/entity/Q1480930","itemLabel":"Gustav-Schwab-Museum","latitude":"48.4529","longitude":"9.09582"},{"item":"http://www.wikidata.org/entity/Q1412464","itemLabel":"Rieskrater-Museum","latitude":"48.854","longitude":"10.4869"},{"item":"http://www.wikidata.org/entity/Q1471331","itemLabel":"musée de la ville de Bautzen","latitude":"51.1802","longitude":"14.4271"},{"item":"http://www.wikidata.org/entity/Q1439432","itemLabel":"Fossilien- und Heimatmuseum Messel","latitude":"49.9393","longitude":"8.74128"},{"item":"http://www.wikidata.org/entity/Q1408905","itemLabel":"Museum Bayerisches Vogtland","latitude":"50.324","longitude":"11.918472"},{"item":"http://www.wikidata.org/entity/Q1473476","itemLabel":"musée du four et de la céramique à Velten","latitude":"52.6893","longitude":"13.1715"},{"item":"http://www.wikidata.org/entity/Q1454515","itemLabel":"Musée en plein air de Diesdorf","latitude":"52.7455","longitude":"10.8851"},{"item":"http://www.wikidata.org/entity/Q1467075","itemLabel":"Fürstenbaumuseum","latitude":"49.7894969","longitude":"9.9212765"},{"item":"http://www.wikidata.org/entity/Q1431976","itemLabel":"Hoffmann-von-Fallersleben-Museum","latitude":"52.4172","longitude":"10.7164"},{"item":"http://www.wikidata.org/entity/Q1401968","itemLabel":"Feinmechanisches Museum Fellenbergmühle","latitude":"49.4455","longitude":"6.64334"},{"item":"http://www.wikidata.org/entity/Q1378648","itemLabel":"Ostfriesisches Landesmuseum Emden","latitude":"53.3668","longitude":"7.20692"},{"item":"http://www.wikidata.org/entity/Q1425545","itemLabel":"bibliothèque Jean de Lasco","latitude":"53.3653","longitude":"7.20236"},{"item":"http://www.wikidata.org/entity/Q1456757","itemLabel":"synagogue de Kippenheim","latitude":"48.2936","longitude":"7.82515"},{"item":"http://www.wikidata.org/entity/Q1467550","itemLabel":"Museumszentrum Burg Linn","latitude":"51.3331","longitude":"6.63472"},{"item":"http://www.wikidata.org/entity/Q1454522","itemLabel":"Freilichtmuseum Neuhausen ob Eck","latitude":"47.98006","longitude":"8.92872"},{"item":"http://www.wikidata.org/entity/Q1458988","itemLabel":"Goldmuseum Theuern","latitude":"50.4267","longitude":"11.0391"},{"item":"http://www.wikidata.org/entity/Q1363869","itemLabel":"musée diocésain de Paderborn","latitude":"51.7185","longitude":"8.75514"},{"item":"http://www.wikidata.org/entity/Q1394061","itemLabel":"Friedrich-Ludwig-Jahn-Museum","latitude":"51.2096","longitude":"11.7717"},{"item":"http://www.wikidata.org/entity/Q1483277","itemLabel":"Fürstenhaus Herrenhausen-Museum","latitude":"52.3921","longitude":"9.69267"},{"item":"http://www.wikidata.org/entity/Q1471252","itemLabel":"Fränkisches Brauereimuseum","latitude":"49.8933","longitude":"10.8758"},{"item":"http://www.wikidata.org/entity/Q1392980","itemLabel":"Schatzkammer Kemnade","latitude":"51.407777777778","longitude":"7.2494444444444"},{"item":"http://www.wikidata.org/entity/Q1454535","itemLabel":"Freilichtmuseum auf der Insel","latitude":"53.5989","longitude":"9.47111"},{"item":"http://www.wikidata.org/entity/Q1470221","itemLabel":"Museumsquartier Tirschenreuth","latitude":"49.8791","longitude":"12.3381"},{"item":"http://www.wikidata.org/entity/Q1420035","itemLabel":"Windstärke 10 – Wrack- und Fischereimuseum Cuxhaven","latitude":"53.8623","longitude":"8.70667"},{"item":"http://www.wikidata.org/entity/Q1386666","itemLabel":"Goethehaus Volpertshausen","latitude":"50.5033","longitude":"8.54581"},{"item":"http://www.wikidata.org/entity/Q1465938","itemLabel":"musée des Nibelungen de Worms","latitude":"49.6294","longitude":"8.36703"},{"item":"http://www.wikidata.org/entity/Q1457761","itemLabel":"Friedrich-Fröbel-Museum","latitude":"50.6847","longitude":"11.2634"},{"item":"http://www.wikidata.org/entity/Q1438203","itemLabel":"Forst- und Jagdmuseum Ferdinand von Raesfeld","latitude":"54.3862","longitude":"12.532"},{"item":"http://www.wikidata.org/entity/Q1431092","itemLabel":"Kraftwerk Hirschfelde","latitude":"50.937456","longitude":"14.891122"},{"item":"http://www.wikidata.org/entity/Q1384526","itemLabel":"Explora","latitude":"50.1278","longitude":"8.689525"},{"item":"http://www.wikidata.org/entity/Q1362258","itemLabel":"Erstes Deutsches Bananenmuseum","latitude":"54.0676","longitude":"10.769"},{"item":"http://www.wikidata.org/entity/Q1386963","itemLabel":"maison de naissance de Georg Friedrich Haendel","latitude":"51.4842","longitude":"11.9669"},{"item":"http://www.wikidata.org/entity/Q1412221","itemLabel":"Museum Römervilla","latitude":"47.5541","longitude":"7.6623"},{"item":"http://www.wikidata.org/entity/Q830476","itemLabel":"Ostpreußisches Landesmuseum","latitude":"53.24619444","longitude":"10.40744444"},{"item":"http://www.wikidata.org/entity/Q811526","itemLabel":"Baumberger Sandsteinmuseum","latitude":"51.9793","longitude":"7.40722"},{"item":"http://www.wikidata.org/entity/Q812397","itemLabel":"Bayerisches Brauerei- und Bäckereimuseum","latitude":"50.114671","longitude":"11.468327"},{"item":"http://www.wikidata.org/entity/Q830709","itemLabel":"Besucherbergwerk Abraumförderbrücke F60","latitude":"51.586576","longitude":"13.777219"},{"item":"http://www.wikidata.org/entity/Q819357","itemLabel":"Bergarbeiter-Wohnmuseum","latitude":"51.596080555556","longitude":"7.4476388888889"},{"item":"http://www.wikidata.org/entity/Q812435","itemLabel":"Bayerisches Polizeimuseum","latitude":"48.7623907","longitude":"11.4351571"},{"item":"http://www.wikidata.org/entity/Q811871","itemLabel":"Bauspar-Museum","latitude":"49.0802","longitude":"9.46103"},{"item":"http://www.wikidata.org/entity/Q636833","itemLabel":"Archäologisches Hegau-Museum","latitude":"47.7625","longitude":"8.83388889"},{"item":"http://www.wikidata.org/entity/Q819431","itemLabel":"Bergbaumuseum des Kreises Altenkirchen","latitude":"50.7701","longitude":"7.91692"},{"item":"http://www.wikidata.org/entity/Q831613","itemLabel":"Betonzeitschiene","latitude":"51.0533","longitude":"13.7689"},{"item":"http://www.wikidata.org/entity/Q751022","itemLabel":"château de Demerthin","latitude":"52.9715","longitude":"12.2897"},{"item":"http://www.wikidata.org/entity/Q811381","itemLabel":"musée Bauhaus","latitude":"50.985","longitude":"11.32416667"},{"item":"http://www.wikidata.org/entity/Q636787","itemLabel":"Archäologischer Park Cambodunum","latitude":"47.7276","longitude":"10.323"},{"item":"http://www.wikidata.org/entity/Q703947","itemLabel":"ArsTecnica","latitude":"50.3529","longitude":"6.3845"},{"item":"http://www.wikidata.org/entity/Q809765","itemLabel":"Basaltpark (Bad Marienberg)","latitude":"50.64583333","longitude":"7.93777778"},{"item":"http://www.wikidata.org/entity/Q704933","itemLabel":"maison des cultures du monde (Berlin)","latitude":"52.5188","longitude":"13.3648"},{"item":"http://www.wikidata.org/entity/Q826149","itemLabel":"Schloss Schwarzenberg","latitude":"50.5373","longitude":"12.7874"},{"item":"http://www.wikidata.org/entity/Q697766","itemLabel":"abbaye d'Eberbach","latitude":"50.0425","longitude":"8.0466666666667"},{"item":"http://www.wikidata.org/entity/Q811292","itemLabel":"Bauernmuseum Richen","latitude":"49.1708","longitude":"8.94003"},{"item":"http://www.wikidata.org/entity/Q806381","itemLabel":"Bandwebermuseum","latitude":"51.265512","longitude":"7.138151"},{"item":"http://www.wikidata.org/entity/Q811651","itemLabel":"Baumwollspinnerei Ermen & Engels","latitude":"50.9835","longitude":"7.40986"},{"item":"http://www.wikidata.org/entity/Q819858","itemLabel":"Bergisches Museum für Bergbau, Handwerk und Gewerbe","latitude":"50.9649","longitude":"7.16458"},{"item":"http://www.wikidata.org/entity/Q811257","itemLabel":"Bauernhaus-Museum Wolfegg","latitude":"47.820953","longitude":"9.788614"},{"item":"http://www.wikidata.org/entity/Q638502","itemLabel":"Römermuseum Weißenburg","latitude":"49.031576240517","longitude":"10.970430040416"},{"item":"http://www.wikidata.org/entity/Q829299","itemLabel":"château de Glücksburg","latitude":"54.831666666667","longitude":"9.5436111111111"},{"item":"http://www.wikidata.org/entity/Q641907","itemLabel":"Sépulture de Hochdorf","latitude":"48.889166666667","longitude":"9.0033333333333"},{"item":"http://www.wikidata.org/entity/Q799878","itemLabel":"Bagger 1452","latitude":"51.06758889","longitude":"14.9579"},{"item":"http://www.wikidata.org/entity/Q707955","itemLabel":"musée romain-germanique","latitude":"50.940542","longitude":"6.958931"},{"item":"http://www.wikidata.org/entity/Q798883","itemLabel":"Musée thermal de Bad Elster","latitude":"50.2833","longitude":"12.2394"},{"item":"http://www.wikidata.org/entity/Q746991","itemLabel":"Magnetmuseum","latitude":"51.4877","longitude":"7.55452"},{"item":"http://www.wikidata.org/entity/Q623210","itemLabel":"Aquazoo – Löbbecke Museum","latitude":"51.2564","longitude":"6.74972"},{"item":"http://www.wikidata.org/entity/Q598975","itemLabel":"Uniseum","latitude":"47.995345","longitude":"7.84863"},{"item":"http://www.wikidata.org/entity/Q811291","itemLabel":"Bauernmuseum Wiehl","latitude":"50.9572","longitude":"7.58125"},{"item":"http://www.wikidata.org/entity/Q821308","itemLabel":"Berlin-Museum","latitude":"52.5014","longitude":"13.3956"},{"item":"http://www.wikidata.org/entity/Q805947","itemLabel":"Bamberger Krippenmuseum","latitude":"49.8923","longitude":"10.883"},{"item":"http://www.wikidata.org/entity/Q620535","itemLabel":"Apotheken-Museum Bad Münstereifel","latitude":"50.5547","longitude":"6.76427"},{"item":"http://www.wikidata.org/entity/Q800306","itemLabel":"Bahnbetriebswerk Hermeskeil","latitude":"49.6572","longitude":"6.93125"},{"item":"http://www.wikidata.org/entity/Q638393","itemLabel":"Reichsstadtmuseum Weißenburg","latitude":"49.03155","longitude":"10.97061"},{"item":"http://www.wikidata.org/entity/Q685524","itemLabel":"Miniatur-Wunderland","latitude":"53.5438464","longitude":"9.9889992"},{"item":"http://www.wikidata.org/entity/Q707407","itemLabel":"Grünes Gewölbe","latitude":"51.0528","longitude":"13.7364"},{"item":"http://www.wikidata.org/entity/Q636821","itemLabel":"Archäologisches Freilichtmuseum Funkenburg","latitude":"51.2389","longitude":"10.9181"},{"item":"http://www.wikidata.org/entity/Q683457","itemLabel":"U-2540","latitude":"53.541388888889","longitude":"8.5777777777778"},{"item":"http://www.wikidata.org/entity/Q803741","itemLabel":"Baierwein-Museum","latitude":"49.020909","longitude":"12.294691"},{"item":"http://www.wikidata.org/entity/Q702551","itemLabel":"château de Schwetzingen","latitude":"49.383526939333","longitude":"8.5659259584118"},{"item":"http://www.wikidata.org/entity/Q813225","itemLabel":"Beatlemania Hamburg","latitude":"53.55005556","longitude":"9.95686111"},{"item":"http://www.wikidata.org/entity/Q831411","itemLabel":"Städtische Galerie. Karlsruhe, Allemagne","latitude":"49.0002","longitude":"8.3837"},{"item":"http://www.wikidata.org/entity/Q811266","itemLabel":"Bauernhausmuseum Lindberg","latitude":"49.0355","longitude":"13.2522"},{"item":"http://www.wikidata.org/entity/Q623176","itemLabel":"Aquarius-Wassermuseum","latitude":"51.443138888889","longitude":"6.8564166666667"},{"item":"http://www.wikidata.org/entity/Q686109","itemLabel":"Wahnfried","latitude":"49.940945102726","longitude":"11.582061647959"},{"item":"http://www.wikidata.org/entity/Q630433","itemLabel":"Arboretum Lohbrügge","latitude":"53.50388889","longitude":"10.19916667"},{"item":"http://www.wikidata.org/entity/Q798175","itemLabel":"maison de naissance de Jean-Sébastien Bach","latitude":"50.971491666667","longitude":"10.322611111111"},{"item":"http://www.wikidata.org/entity/Q806381","itemLabel":"Bandwebermuseum","latitude":"51.2295","longitude":"7.14009"},{"item":"http://www.wikidata.org/entity/Q813227","itemLabel":"Beatles-Museum Halle","latitude":"51.4802","longitude":"11.9683"},{"item":"http://www.wikidata.org/entity/Q800295","itemLabel":"Bahnbetriebswerk Gelsenkirchen-Bismarck","latitude":"51.5402","longitude":"7.11927"},{"item":"http://www.wikidata.org/entity/Q799168","itemLabel":"Badisches Landesmuseum","latitude":"49.0136","longitude":"8.40444"},{"item":"http://www.wikidata.org/entity/Q688335","itemLabel":"musée historique allemand","latitude":"52.5178","longitude":"13.3969"},{"item":"http://www.wikidata.org/entity/Q674670","itemLabel":"villa Hügel","latitude":"51.4069","longitude":"7.0083"},{"item":"http://www.wikidata.org/entity/Q636568","itemLabel":"Parc archéologique de Belginum","latitude":"49.8554","longitude":"7.16454"},{"item":"http://www.wikidata.org/entity/Q790845","itemLabel":"Aviatisches Museum","latitude":"52.4403","longitude":"13.5056"},{"item":"http://www.wikidata.org/entity/Q830709","itemLabel":"Besucherbergwerk Abraumförderbrücke F60","latitude":"51.5861","longitude":"13.7772"},{"item":"http://www.wikidata.org/entity/Q830723","itemLabel":"Besucherbergwerk Schmittenstollen","latitude":"49.7905","longitude":"7.78171"},{"item":"http://www.wikidata.org/entity/Q780621","itemLabel":"Ausstellungszentrum für die Archäologie des Emslandes","latitude":"52.6879","longitude":"7.30486"},{"item":"http://www.wikidata.org/entity/Q705848","itemLabel":"château de Johannisburg","latitude":"49.9761","longitude":"9.14167"},{"item":"http://www.wikidata.org/entity/Q830675","itemLabel":"Langen Foundation","latitude":"51.152383333333","longitude":"6.6446111111111"},{"item":"http://www.wikidata.org/entity/Q819398","itemLabel":"Bergbau- und Industriemuseum Ostbayern","latitude":"49.3865","longitude":"11.9107"},{"item":"http://www.wikidata.org/entity/Q638130","itemLabel":"thermes romains de Weissenburg in Bayern","latitude":"49.0307","longitude":"10.9582"},{"item":"http://www.wikidata.org/entity/Q827832","itemLabel":"Berthold-Auerbach-Museum","latitude":"48.4371","longitude":"8.70363"},{"item":"http://www.wikidata.org/entity/Q829296","itemLabel":"musée de la Sarre","latitude":"49.2308","longitude":"6.99992"},{"item":"http://www.wikidata.org/entity/Q636513","itemLabel":"Archäologie-Museum im Fränkischen Freilandmuseum Bad Windsheim","latitude":"49.4972","longitude":"10.4222"},{"item":"http://www.wikidata.org/entity/Q694490","itemLabel":"musée de Parfum","latitude":"50.93774","longitude":"6.95792"},{"item":"http://www.wikidata.org/entity/Q811381","itemLabel":"musée Bauhaus","latitude":"50.98","longitude":"11.326111"},{"item":"http://www.wikidata.org/entity/Q599015","itemLabel":"Stift Fischbeck","latitude":"52.1419","longitude":"9.29722"},{"item":"http://www.wikidata.org/entity/Q700216","itemLabel":"Musées d'État de Berlin","latitude":"52.455172015138","longitude":"13.292128099556"},{"item":"http://www.wikidata.org/entity/Q636865","itemLabel":"Archäologisches Landesmuseum Brandenburg im Paulikloster","latitude":"52.4061","longitude":"12.5631"},{"item":"http://www.wikidata.org/entity/Q641907","itemLabel":"Sépulture de Hochdorf","latitude":"48.888611","longitude":"9.009722"},{"item":"http://www.wikidata.org/entity/Q756700","itemLabel":"Atlantis Kindermuseum","latitude":"51.4403","longitude":"6.77028"},{"item":"http://www.wikidata.org/entity/Q821594","itemLabel":"Nietzsche-Haus","latitude":"51.15","longitude":"11.8126"},{"item":"http://www.wikidata.org/entity/Q702661","itemLabel":"Autostadt","latitude":"52.4311","longitude":"10.7919"},{"item":"http://www.wikidata.org/entity/Q821828","itemLabel":"Berliner Turm","latitude":"52.2735","longitude":"11.8645"},{"item":"http://www.wikidata.org/entity/Q627507","itemLabel":"Arbeitsgemeinschaft Geesthachter Eisenbahn","latitude":"53.43388889","longitude":"10.365"},{"item":"http://www.wikidata.org/entity/Q620550","itemLabel":"Apothekenmuseum Weißenburg","latitude":"49.0313","longitude":"10.9714"},{"item":"http://www.wikidata.org/entity/Q637250","itemLabel":"Archäologisches Zentrum Hitzacker","latitude":"53.1469","longitude":"11.0472"},{"item":"http://www.wikidata.org/entity/Q811267","itemLabel":"Bauernhausmuseum der Stadt Bochum","latitude":"51.408333333333","longitude":"7.2507777777778"},{"item":"http://www.wikidata.org/entity/Q828334","itemLabel":"Lipsiusbau","latitude":"51.0528","longitude":"13.7433"},{"item":"http://www.wikidata.org/entity/Q642097","itemLabel":"château de Darmstadt","latitude":"49.8736","longitude":"8.65528"},{"item":"http://www.wikidata.org/entity/Q804216","itemLabel":"Bajuwarenmuseum","latitude":"47.9338518","longitude":"12.736871"},{"item":"http://www.wikidata.org/entity/Q789964","itemLabel":"Außenstelle des Museums Bochum auf Haus Kemnade","latitude":"51.407777777778","longitude":"7.2494444444444"},{"item":"http://www.wikidata.org/entity/Q613228","itemLabel":"Friesenmuseum","latitude":"54.6872","longitude":"8.56194"},{"item":"http://www.wikidata.org/entity/Q705611","itemLabel":"Art Kite Museum","latitude":"51.9439","longitude":"8.89833"},{"item":"http://www.wikidata.org/entity/Q636568","itemLabel":"Parc archéologique de Belginum","latitude":"49.867101","longitude":"7.164257"},{"item":"http://www.wikidata.org/entity/Q735434","itemLabel":"musée Couven","latitude":"50.7757","longitude":"6.08487"},{"item":"http://www.wikidata.org/entity/Q804288","itemLabel":"Bakelit-Museum Kierspe","latitude":"51.1383","longitude":"7.5864"},{"item":"http://www.wikidata.org/entity/Q811293","itemLabel":"Musée de la ferme de Schlepzig","latitude":"52.0272","longitude":"13.8991"},{"item":"http://www.wikidata.org/entity/Q748371","itemLabel":"Skulpturenpark Sammlung Domnick Nürtingen","latitude":"48.6246","longitude":"9.34241"},{"item":"http://www.wikidata.org/entity/Q684896","itemLabel":"Sammlung Falckenberg","latitude":"53.45522","longitude":"9.98743"},{"item":"http://www.wikidata.org/entity/Q620547","itemLabel":"Apothekenmuseum Schiltach","latitude":"48.2899","longitude":"8.3434"},{"item":"http://www.wikidata.org/entity/Q760547","itemLabel":"Augsburger Kanumuseum","latitude":"48.346389","longitude":"10.935833"},{"item":"http://www.wikidata.org/entity/Q811526","itemLabel":"Baumberger Sandsteinmuseum","latitude":"51.979364","longitude":"7.407165"},{"item":"http://www.wikidata.org/entity/Q819429","itemLabel":"Bergbaumuseum Siciliaschacht","latitude":"51.1285","longitude":"8.06282"},{"item":"http://www.wikidata.org/entity/Q756487","itemLabel":"Atlanticum","latitude":"53.5219","longitude":"8.58717"},{"item":"http://www.wikidata.org/entity/Q1526549","itemLabel":"Gipsformerei","latitude":"52.5192","longitude":"13.2867"},{"item":"http://www.wikidata.org/entity/Q1550167","itemLabel":"Deutsches Gruben- und Feldbahnmuseum","latitude":"51.428611111111","longitude":"7.3244444444444"},{"item":"http://www.wikidata.org/entity/Q1526400","itemLabel":"Phyllodrom","latitude":"51.39174","longitude":"12.37734"},{"item":"http://www.wikidata.org/entity/Q1548656","itemLabel":"Prignitz-Museum","latitude":"52.8267","longitude":"12.0778"},{"item":"http://www.wikidata.org/entity/Q1535025","itemLabel":"Rheinisches Fastnachtsmuseum Koblenz","latitude":"50.3509","longitude":"7.58736"},{"item":"http://www.wikidata.org/entity/Q1551866","itemLabel":"Gründerzeitmuseum im Gutshaus Mahlsdorf","latitude":"52.5024","longitude":"13.6139"},{"item":"http://www.wikidata.org/entity/Q1537067","itemLabel":"Gondwana – Das Praehistorium","latitude":"49.36666667","longitude":"7.11666667"},{"item":"http://www.wikidata.org/entity/Q1534815","itemLabel":"Golden-Ross-Kaserne","latitude":"50.00385","longitude":"8.26778"},{"item":"http://www.wikidata.org/entity/Q1549970","itemLabel":"Grube Glasebach","latitude":"51.6125","longitude":"11.0608"},{"item":"http://www.wikidata.org/entity/Q1495184","itemLabel":"Gaslaternen-Freilichtmuseum Berlin","latitude":"52.51268333","longitude":"13.33705278"},{"item":"http://www.wikidata.org/entity/Q1534191","itemLabel":"Goethemuseum (Stützerbach)","latitude":"50.6358","longitude":"10.8678"},{"item":"http://www.wikidata.org/entity/Q1494978","itemLabel":"Maarmuseum","latitude":"50.0906","longitude":"6.80722"},{"item":"http://www.wikidata.org/entity/Q1499511","itemLabel":"musée de la monnaie de la Deutsche Bundesbank","latitude":"50.1358","longitude":"8.6619"},{"item":"http://www.wikidata.org/entity/Q1543522","itemLabel":"musée Grassi","latitude":"51.3374","longitude":"12.3883"},{"item":"http://www.wikidata.org/entity/Q1558875","itemLabel":"Gäubodenmuseum","latitude":"48.883334288515","longitude":"12.570373429884"},{"item":"http://www.wikidata.org/entity/Q1543579","itemLabel":"ehem. Lichtdruck-Werkstatt-Museum","latitude":"51.035","longitude":"13.8008"},{"item":"http://www.wikidata.org/entity/Q1534213","itemLabel":"Goethes Gartenhaus","latitude":"50.9761","longitude":"11.3369"},{"item":"http://www.wikidata.org/entity/Q1503225","itemLabel":"Geologisch-Paläontologisches Museum Hamburg","latitude":"53.56805556","longitude":"9.97444444"},{"item":"http://www.wikidata.org/entity/Q1549317","itemLabel":"Grossherzoglich-Hessische Porzellansammlung","latitude":"49.8796","longitude":"8.65347"},{"item":"http://www.wikidata.org/entity/Q1529703","itemLabel":"Glasmuseum Spiegelberg","latitude":"49.0378","longitude":"9.44654"},{"item":"http://www.wikidata.org/entity/Q1503409","itemLabel":"Musée Georg Kolbe","latitude":"52.50991","longitude":"13.25478"},{"item":"http://www.wikidata.org/entity/Q1514593","itemLabel":"Museum am Markt","latitude":"48.2904","longitude":"8.34318"},{"item":"http://www.wikidata.org/entity/Q1508725","itemLabel":"Hessisches Landesmuseum","latitude":"51.3108","longitude":"9.48972"},{"item":"http://www.wikidata.org/entity/Q1502577","itemLabel":"Genscher-Haus","latitude":"51.4754","longitude":"12.0453"},{"item":"http://www.wikidata.org/entity/Q1535100","itemLabel":"Schloss Reinbek","latitude":"53.5073","longitude":"10.2539"},{"item":"http://www.wikidata.org/entity/Q1529697","itemLabel":"Glasmuseum Frauenau","latitude":"48.9881114","longitude":"13.2983821"},{"item":"http://www.wikidata.org/entity/Q1502400","itemLabel":"musée du Land de Coblence","latitude":"50.3641","longitude":"7.61436"},{"item":"http://www.wikidata.org/entity/Q1529396","itemLabel":"Glaselefant","latitude":"51.6829","longitude":"7.88174"},{"item":"http://www.wikidata.org/entity/Q1566931","itemLabel":"Museum für Angewandte Kunst","latitude":"50.87560833","longitude":"12.08641944"},{"item":"http://www.wikidata.org/entity/Q1494393","itemLabel":"Garnisonmuseum Ludwigsburg","latitude":"48.8975","longitude":"9.18304"},{"item":"http://www.wikidata.org/entity/Q1518746","itemLabel":"Museum Riegel","latitude":"48.1508","longitude":"7.75113"},{"item":"http://www.wikidata.org/entity/Q1520447","itemLabel":"musée du commerce de Nuremberg","latitude":"49.451458826951","longitude":"11.083333306989"},{"item":"http://www.wikidata.org/entity/Q1497547","itemLabel":"Gedenkstätte Stille Helden","latitude":"52.5245","longitude":"13.4017"},{"item":"http://www.wikidata.org/entity/Q1509363","itemLabel":"musée des techniques Hugo-Junkers","latitude":"51.8364","longitude":"12.2089"},{"item":"http://www.wikidata.org/entity/Q1527926","itemLabel":"Weimarhaus","latitude":"50.9793","longitude":"11.3269"},{"item":"http://www.wikidata.org/entity/Q1495745","itemLabel":"Museum für Neue Kunst Karlsruhe","latitude":"49.0014","longitude":"8.38361"},{"item":"http://www.wikidata.org/entity/Q1536845","itemLabel":"Museum Soltau","latitude":"52.9869","longitude":"9.83753"},{"item":"http://www.wikidata.org/entity/Q1517435","itemLabel":"Museum für Ur- und Frühgeschichte auf der Willibaldsburg","latitude":"48.894427","longitude":"11.16959"},{"item":"http://www.wikidata.org/entity/Q1550590","itemLabel":"musée celto-romain de Manching","latitude":"48.713","longitude":"11.4933"},{"item":"http://www.wikidata.org/entity/Q1503408","itemLabel":"Georg-Lechner-Biermuseum","latitude":"51.8107","longitude":"8.13158"},{"item":"http://www.wikidata.org/entity/Q1545709","itemLabel":"Grenz-Dokumentationsstätte Lübeck-Schlutup","latitude":"53.8842","longitude":"10.8053"},{"item":"http://www.wikidata.org/entity/Q1521945","itemLabel":"Skimuseum Augsburg","latitude":"48.3638","longitude":"10.9268"},{"item":"http://www.wikidata.org/entity/Q1512911","itemLabel":"Gerhart-Hauptmann-Haus","latitude":"51.221","longitude":"6.78929"},{"item":"http://www.wikidata.org/entity/Q1543384","itemLabel":"Porzellanmuseum Münster","latitude":"51.9729","longitude":"7.60944"},{"item":"http://www.wikidata.org/entity/Q1503229","itemLabel":"Geologisch-Paläontologisches Museum Münster","latitude":"51.9615","longitude":"7.62314"},{"item":"http://www.wikidata.org/entity/Q1505516","itemLabel":"Hohenzollerisches Landesmuseum","latitude":"48.3535","longitude":"8.96419"},{"item":"http://www.wikidata.org/entity/Q1529702","itemLabel":"Glasmuseum Waldkraiburg","latitude":"48.208130555556","longitude":"12.406236111111"},{"item":"http://www.wikidata.org/entity/Q1552844","itemLabel":"Kleinbauernmuseum Reitzendorf","latitude":"51.0267","longitude":"13.9036"},{"item":"http://www.wikidata.org/entity/Q1503409","itemLabel":"Musée Georg Kolbe","latitude":"52.51028","longitude":"13.25417"},{"item":"http://www.wikidata.org/entity/Q1551805","itemLabel":"Grünauer Wassersportmuseum","latitude":"52.4119","longitude":"13.5875"},{"item":"http://www.wikidata.org/entity/Q1543996","itemLabel":"Harrys Hamburger Hafenbasar","latitude":"53.547652","longitude":"9.959831"},{"item":"http://www.wikidata.org/entity/Q1497759","itemLabel":"GeesthachtMuseum!","latitude":"53.433","longitude":"10.3714"},{"item":"http://www.wikidata.org/entity/Q1551641","itemLabel":"Grönegaumuseum","latitude":"52.2058","longitude":"8.32861"},{"item":"http://www.wikidata.org/entity/Q1503250","itemLabel":"Geologisches Museum München","latitude":"48.1472","longitude":"11.5647"},{"item":"http://www.wikidata.org/entity/Q1528467","itemLabel":"Muschelkalkmuseum Hagdorn","latitude":"49.301","longitude":"9.65028"},{"item":"http://www.wikidata.org/entity/Q1525564","itemLabel":"Caricatura Museum für Komische Kunst","latitude":"50.1102","longitude":"8.68511"},{"item":"http://www.wikidata.org/entity/Q1564668","itemLabel":"Sparkassen-Museum","latitude":"50.9798","longitude":"10.3245"},{"item":"http://www.wikidata.org/entity/Q1555947","itemLabel":"Museum für Uhren, Schmuck und Kunst Frankfurt am Main","latitude":"50.1022","longitude":"8.54762"},{"item":"http://www.wikidata.org/entity/Q1534447","itemLabel":"Inn-Museum","latitude":"47.855","longitude":"12.141"},{"item":"http://www.wikidata.org/entity/Q1503802","itemLabel":"Georg Breusing","latitude":"53.3664","longitude":"7.20626"},{"item":"http://www.wikidata.org/entity/Q1516470","itemLabel":"Museum im Schlossturm","latitude":"52.6036","longitude":"8.37229"},{"item":"http://www.wikidata.org/entity/Q1552368","itemLabel":"Silberwäsche","latitude":"50.5048","longitude":"12.7561"},{"item":"http://www.wikidata.org/entity/Q1557049","itemLabel":"Gut Steinhof","latitude":"52.3169","longitude":"10.4456"},{"item":"http://www.wikidata.org/entity/Q1529695","itemLabel":"Glasmuseum Bad Driburg","latitude":"51.7366","longitude":"9.01921"},{"item":"http://www.wikidata.org/entity/Q1497544","itemLabel":"Gedenkstätte Münchner Platz Dresden","latitude":"51.0292","longitude":"13.7225"},{"item":"http://www.wikidata.org/entity/Q1529704","itemLabel":"Glasmuseum Wertheim","latitude":"49.7582","longitude":"9.51775"},{"item":"http://www.wikidata.org/entity/Q1541549","itemLabel":"Grafik Museum Stiftung Schreiner","latitude":"50.36536","longitude":"11.635613"},{"item":"http://www.wikidata.org/entity/Q1519254","itemLabel":"Melanchthonhaus","latitude":"49.0368","longitude":"8.7069"},{"item":"http://www.wikidata.org/entity/Q1545812","itemLabel":"Musée en plein air près de Sorge dans les montagnes du Harz","latitude":"51.6949","longitude":"10.6859"},{"item":"http://www.wikidata.org/entity/Q1515980","itemLabel":"Gerätemuseum des Coburger Landes","latitude":"50.2317","longitude":"10.9489"},{"item":"http://www.wikidata.org/entity/Q1485888","itemLabel":"Historisches Zentrum der Stadt Remscheid","latitude":"51.1972","longitude":"7.16575"},{"item":"http://www.wikidata.org/entity/Q1541857","itemLabel":"Grafschaftsmuseum Wertheim und Otto-Modersohn-Kabinett","latitude":"49.7596","longitude":"9.51811"},{"item":"http://www.wikidata.org/entity/Q1541361","itemLabel":"Graf-Eberstein-Schloss","latitude":"49.1036","longitude":"8.74635"},{"item":"http://www.wikidata.org/entity/Q1560511","itemLabel":"maison Günter-Grass","latitude":"53.8694","longitude":"10.69"},{"item":"http://www.wikidata.org/entity/Q1534136","itemLabel":"Goethe-Nationalmuseum","latitude":"50.9776","longitude":"11.3287"},{"item":"http://www.wikidata.org/entity/Q1552095","itemLabel":"Mühlenmuseum Moisburg","latitude":"53.4051","longitude":"9.69492"},{"item":"http://www.wikidata.org/entity/Q1531619","itemLabel":"Otto-Pankok-Museum","latitude":"51.71","longitude":"6.69972"},{"item":"http://www.wikidata.org/entity/Q1514834","itemLabel":"Stormarnsches Dorfmuseum","latitude":"53.6556","longitude":"10.333"},{"item":"http://www.wikidata.org/entity/Q1517744","itemLabel":"Geschichtsmuseum der Stadt Lüdenscheid","latitude":"51.2138","longitude":"7.6316"},{"item":"http://www.wikidata.org/entity/Q1531837","itemLabel":"Glocken- und Stadtmuseum (Apolda)","latitude":"51.0269","longitude":"11.5192"},{"item":"http://www.wikidata.org/entity/Q1516413","itemLabel":"Heimatmuseum Hüsli","latitude":"47.79407229","longitude":"8.24779272"},{"item":"http://www.wikidata.org/entity/Q1498000","itemLabel":"Traktor-Museum am Bahnhof","latitude":"50.22","longitude":"11.935"},{"item":"http://www.wikidata.org/entity/Q1525458","itemLabel":"Jagdhaus Gabelbach","latitude":"50.6586","longitude":"10.8842"},{"item":"http://www.wikidata.org/entity/Q1539491","itemLabel":"Historisches Museum Bamberg","latitude":"49.8909","longitude":"10.8824"},{"item":"http://www.wikidata.org/entity/Q1529609","itemLabel":"Glashüttenmuseum des Erzgebirges","latitude":"50.6775","longitude":"13.4622"},{"item":"http://www.wikidata.org/entity/Q1532094","itemLabel":"KZ-Gedenkstätte Dachau","latitude":"48.2703","longitude":"11.4681"},{"item":"http://www.wikidata.org/entity/Q1495723","itemLabel":"Gaswerk Neustadt (Dosse)","latitude":"52.8625","longitude":"12.4203"},{"item":"http://www.wikidata.org/entity/Q1497540","itemLabel":"Gedenkstätte Museum in der „Runden Ecke“","latitude":"51.34152","longitude":"12.37"},{"item":"http://www.wikidata.org/entity/Q1530823","itemLabel":"Museum im Stern","latitude":"51.4877","longitude":"9.14779"},{"item":"http://www.wikidata.org/entity/Q1524874","itemLabel":"TRUDE","latitude":"53.58483333","longitude":"10.04433333"},{"item":"http://www.wikidata.org/entity/Q1566920","itemLabel":"Warleberger Hof","latitude":"54.3244","longitude":"10.141"},{"item":"http://www.wikidata.org/entity/Q1525046","itemLabel":"Ginkgo-Museum","latitude":"50.9792","longitude":"11.3292"},{"item":"http://www.wikidata.org/entity/Q1558839","itemLabel":"Gärtner- und Häckermuseum","latitude":"49.8994","longitude":"10.8927"},{"item":"http://www.wikidata.org/entity/Q1559234","itemLabel":"Göhre","latitude":"50.9285","longitude":"11.5883"},{"item":"http://www.wikidata.org/entity/Q1512708","itemLabel":"Siku Museum","latitude":"51.9853","longitude":"6.89107"},{"item":"http://www.wikidata.org/entity/Q1547444","itemLabel":"Industriesalon Schöneweide","latitude":"52.4602","longitude":"13.5192"},{"item":"http://www.wikidata.org/entity/Q1503291","itemLabel":"Geomuseum Münster","latitude":"51.9614","longitude":"7.62364"},{"item":"http://www.wikidata.org/entity/Q1497652","itemLabel":"Oberfränkisches Feuerwehrmuseum","latitude":"50.279741","longitude":"11.740662"},{"item":"http://www.wikidata.org/entity/Q1541344","itemLabel":"Graevenitz-Museum","latitude":"48.7858","longitude":"9.08694"},{"item":"http://www.wikidata.org/entity/Q1494361","itemLabel":"Kunstmuseum Albstadt","latitude":"48.2123","longitude":"9.02512"},{"item":"http://www.wikidata.org/entity/Q2147843","itemLabel":"Rheinisches Schützenmuseum Neuss","latitude":"51.1952","longitude":"6.69689"},{"item":"http://www.wikidata.org/entity/Q2244612","itemLabel":"Schlossmuseum Jever","latitude":"53.5722","longitude":"7.90306"},{"item":"http://www.wikidata.org/entity/Q2130301","itemLabel":"Ramones-Museum Berlin","latitude":"52.50117","longitude":"13.44311"},{"item":"http://www.wikidata.org/entity/Q2239531","itemLabel":"Schleusenpark Waltrop","latitude":"51.6186","longitude":"7.33007"},{"item":"http://www.wikidata.org/entity/Q2035602","itemLabel":"Osthofentor","latitude":"51.5736","longitude":"8.11583"},{"item":"http://www.wikidata.org/entity/Q2010931","itemLabel":"Oberschwäbisches Museumsdorf Kürnbach","latitude":"47.9923","longitude":"9.67633"},{"item":"http://www.wikidata.org/entity/Q2035527","itemLabel":"Ostfriesisches Teemuseum","latitude":"53.5947","longitude":"7.20242"},{"item":"http://www.wikidata.org/entity/Q2147828","itemLabel":"Rheinisches Eisenkunstguss-Museum","latitude":"50.4384","longitude":"7.57722"},{"item":"http://www.wikidata.org/entity/Q2042287","itemLabel":"Overbeck-Museum","latitude":"53.1689","longitude":"8.62373"},{"item":"http://www.wikidata.org/entity/Q2179565","itemLabel":"Römerhalle (Bad Kreuznach)","latitude":"49.8457","longitude":"7.84679"},{"item":"http://www.wikidata.org/entity/Q2050734","itemLabel":"Papiermühle Plöger","latitude":"51.9103","longitude":"9.14461"},{"item":"http://www.wikidata.org/entity/Q2179612","itemLabel":"Römermuseum Obernburg","latitude":"49.840152","longitude":"9.14828"},{"item":"http://www.wikidata.org/entity/Q2168818","itemLabel":"Rotkreuz-Museum Berlin","latitude":"52.4743","longitude":"13.3267"},{"item":"http://www.wikidata.org/entity/Q2051363","itemLabel":"Paradiesmühle","latitude":"51.8766","longitude":"9.28196"},{"item":"http://www.wikidata.org/entity/Q2235783","itemLabel":"Schillers Gartenhaus","latitude":"50.9258","longitude":"11.5833"},{"item":"http://www.wikidata.org/entity/Q2216180","itemLabel":"Salzmuseum","latitude":"51.269","longitude":"9.96523"},{"item":"http://www.wikidata.org/entity/Q2212199","itemLabel":"Saigerhütte Grünthal","latitude":"50.6496","longitude":"13.3683"},{"item":"http://www.wikidata.org/entity/Q2046957","itemLabel":"Palais Dürckheim","latitude":"48.1458","longitude":"11.5733"},{"item":"http://www.wikidata.org/entity/Q2222068","itemLabel":"Sankt-Pauli-Museum","latitude":"53.54841667","longitude":"9.96241667"},{"item":"http://www.wikidata.org/entity/Q2239098","itemLabel":"Schlepper- und Geräte-Museum Altenberge","latitude":"52.0172","longitude":"7.44333"},{"item":"http://www.wikidata.org/entity/Q2240519","itemLabel":"château de Caputh","latitude":"52.3491","longitude":"13.0007"},{"item":"http://www.wikidata.org/entity/Q2179613","itemLabel":"Römermuseum Grabenstätt","latitude":"47.843138888889","longitude":"12.543916666667"},{"item":"http://www.wikidata.org/entity/Q2148924","itemLabel":"Richard-Wagner-Stätten Graupa","latitude":"51.00005","longitude":"13.92046"},{"item":"http://www.wikidata.org/entity/Q2179608","itemLabel":"Römermuseum Kastell Boiotro","latitude":"48.5698","longitude":"13.4624"},{"item":"http://www.wikidata.org/entity/Q2234922","itemLabel":"Schiffahrtsmuseum der oldenburgischen Unterweser","latitude":"53.3264","longitude":"8.48451"},{"item":"http://www.wikidata.org/entity/Q2050718","itemLabel":"Papiermuseum Düren","latitude":"50.8008","longitude":"6.47944"},{"item":"http://www.wikidata.org/entity/Q2244615","itemLabel":"Schlossmuseum Pillnitz","latitude":"51.0083","longitude":"13.8711"},{"item":"http://www.wikidata.org/entity/Q2179619","itemLabel":"Römermuseum in der Schule Rißtissen","latitude":"48.269","longitude":"9.8333"},{"item":"http://www.wikidata.org/entity/Q2010607","itemLabel":"Freilandmuseum Oberpfalz","latitude":"49.4658","longitude":"12.2201"},{"item":"http://www.wikidata.org/entity/Q2217216","itemLabel":"Samlandmuseum","latitude":"53.6595","longitude":"9.80313"},{"item":"http://www.wikidata.org/entity/Q2220539","itemLabel":"Sandelsches Museum","latitude":"49.2049","longitude":"9.98172"},{"item":"http://www.wikidata.org/entity/Q2050608","itemLabel":"Papenburger Zeitspeicher","latitude":"53.0869","longitude":"7.38388"},{"item":"http://www.wikidata.org/entity/Q2179505","itemLabel":"RömerWelt","latitude":"50.5111","longitude":"7.32671"},{"item":"http://www.wikidata.org/entity/Q2009806","itemLabel":"Oberhausmuseum","latitude":"48.5775","longitude":"13.4709"},{"item":"http://www.wikidata.org/entity/Q2168498","itemLabel":"Rotes Haus","latitude":"50.5547","longitude":"6.24085"},{"item":"http://www.wikidata.org/entity/Q2052725","itemLabel":"Parkhöhle","latitude":"50.975","longitude":"11.3311"},{"item":"http://www.wikidata.org/entity/Q2215893","itemLabel":"mine de sel Berchtesgaden","latitude":"47.638119733115","longitude":"13.017754043395"},{"item":"http://www.wikidata.org/entity/Q2240269","itemLabel":"Château de Bernburg","latitude":"51.7939","longitude":"11.7344"},{"item":"http://www.wikidata.org/entity/Q2167344","itemLabel":"Rosgartenmuseum","latitude":"47.6599","longitude":"9.17479"},{"item":"http://www.wikidata.org/entity/Q2109125","itemLabel":"LWL-Preußenmuseum Minden","latitude":"52.2836","longitude":"8.90861"},{"item":"http://www.wikidata.org/entity/Q2179623","itemLabel":"Römermuseum Schwarzenacker","latitude":"49.2828","longitude":"7.31663"},{"item":"http://www.wikidata.org/entity/Q2235030","itemLabel":"Schifffahrtsmuseum (Düsseldorf)","latitude":"51.2275","longitude":"6.77111"},{"item":"http://www.wikidata.org/entity/Q2010605","itemLabel":"Oberpfälzer Fischereimuseum","latitude":"49.8792","longitude":"12.3387"},{"item":"http://www.wikidata.org/entity/Q2101739","itemLabel":"Polizeihistorische Sammlung Berlin","latitude":"52.483","longitude":"13.387"},{"item":"http://www.wikidata.org/entity/Q2168820","itemLabel":"Rotkreuz-Museum vogelsang ip","latitude":"50.5875","longitude":"6.44806"},{"item":"http://www.wikidata.org/entity/Q2234480","itemLabel":"Schieferpark Lehesten","latitude":"50.4631","longitude":"11.4384"},{"item":"http://www.wikidata.org/entity/Q2160723","itemLabel":"Rockmuseum Munich","latitude":"48.1744","longitude":"11.5536"},{"item":"http://www.wikidata.org/entity/Q2156263","itemLabel":"Robert-Schumann-Haus Zwickau","latitude":"50.7176","longitude":"12.4965"},{"item":"http://www.wikidata.org/entity/Q2239236","itemLabel":"Schlesisches Museum zu Görlitz","latitude":"51.15611314","longitude":"14.99059796"},{"item":"http://www.wikidata.org/entity/Q2168825","itemLabel":"Rotkreuzgeschichtliche Sammlung in Westfalen-Lippe","latitude":"51.809972222222","longitude":"8.8393611111111"},{"item":"http://www.wikidata.org/entity/Q2147872","itemLabel":"Rheinland-Pfälzisches Feuerwehrmuseum Hermeskeil","latitude":"49.65552","longitude":"6.94337"},{"item":"http://www.wikidata.org/entity/Q2006386","itemLabel":"Nähmaschinenmuseum Sommerfeld","latitude":"52.8011","longitude":"13.0326"},{"item":"http://www.wikidata.org/entity/Q2168814","itemLabel":"Rotkreuz-Museum Nürnberg","latitude":"49.4573976","longitude":"11.0955363"},{"item":"http://www.wikidata.org/entity/Q2103446","itemLabel":"Pompejanum","latitude":"49.9775","longitude":"9.13639"},{"item":"http://www.wikidata.org/entity/Q2202633","itemLabel":"Römisches Museum mit Archäologischem Park Köngen","latitude":"48.6772","longitude":"9.36028"},{"item":"http://www.wikidata.org/entity/Q2009784","itemLabel":"Oberharzer Bergwerksmuseum","latitude":"51.8171","longitude":"10.3359"},{"item":"http://www.wikidata.org/entity/Q2105542","itemLabel":"musée de la Porcelaine de Munich","latitude":"48.1558","longitude":"11.5056"},{"item":"http://www.wikidata.org/entity/Q2235725","itemLabel":"Schillerhaus (Oberkochen)","latitude":"48.7851","longitude":"10.107"},{"item":"http://www.wikidata.org/entity/Q2202439","itemLabel":"Römische Kalkbrennerei Iversheim","latitude":"50.5881","longitude":"6.77399"},{"item":"http://www.wikidata.org/entity/Q2238882","itemLabel":"Schleifmühle Schwerin","latitude":"53.6177","longitude":"11.4191"},{"item":"http://www.wikidata.org/entity/Q2133582","itemLabel":"musée de Rautenstrauch-Joest","latitude":"50.922355555556","longitude":"6.9647027777778"},{"item":"http://www.wikidata.org/entity/Q2068415","itemLabel":"Pelzerhäuser","latitude":"53.3648","longitude":"7.20451"},{"item":"http://www.wikidata.org/entity/Q2241369","itemLabel":"Château Güstrow","latitude":"53.79084","longitude":"12.17706"},{"item":"http://www.wikidata.org/entity/Q2244607","itemLabel":"Schlossmuseum Aschaffenburg","latitude":"49.9761","longitude":"9.14167"},{"item":"http://www.wikidata.org/entity/Q2202627","itemLabel":"Römisches Museum Augsburg","latitude":"48.3652","longitude":"10.901"},{"item":"http://www.wikidata.org/entity/Q2009653","itemLabel":"Oberfränkisches Bauernhofmuseum Kleinlosnitz","latitude":"50.1558","longitude":"11.7903"},{"item":"http://www.wikidata.org/entity/Q2138989","itemLabel":"Rehmuseum","latitude":"47.633269","longitude":"13.003061"},{"item":"http://www.wikidata.org/entity/Q2015389","itemLabel":"Ofenbauermuseum","latitude":"50.557014","longitude":"7.955594"},{"item":"http://www.wikidata.org/entity/Q2243636","itemLabel":"Schloss Strünkede","latitude":"51.5514","longitude":"7.21111"},{"item":"http://www.wikidata.org/entity/Q2240858","itemLabel":"Schloss Engers","latitude":"50.4225","longitude":"7.54361"},{"item":"http://www.wikidata.org/entity/Q2148924","itemLabel":"Richard-Wagner-Stätten Graupa","latitude":"50.999277465649","longitude":"13.92207929687"},{"item":"http://www.wikidata.org/entity/Q2217432","itemLabel":"Sammlung Ur- und Frühgeschichte der Universität Leipzig","latitude":"51.341307797102","longitude":"12.379496665845"},{"item":"http://www.wikidata.org/entity/Q2235692","itemLabel":"Schiller-Nationalmuseum","latitude":"48.9356","longitude":"9.25485"},{"item":"http://www.wikidata.org/entity/Q2142750","itemLabel":"Religionskundliche Sammlung","latitude":"50.80986","longitude":"8.76892"},{"item":"http://www.wikidata.org/entity/Q2084616","itemLabel":"Pfälzisches Steinhauermuseum","latitude":"49.7225","longitude":"7.81295"},{"item":"http://www.wikidata.org/entity/Q2240265","itemLabel":"Château de Berlebourg","latitude":"51.051444444444","longitude":"8.3884722222222"},{"item":"http://www.wikidata.org/entity/Q2083455","itemLabel":"Pfefferminzmuseum","latitude":"48.166458333333","longitude":"11.319661111111"},{"item":"http://www.wikidata.org/entity/Q2167145","itemLabel":"musée Rosenheim","latitude":"50.1018","longitude":"8.74744"},{"item":"http://www.wikidata.org/entity/Q2050716","itemLabel":"Papiermuseum Alte Dombach","latitude":"50.9949","longitude":"7.15361"},{"item":"http://www.wikidata.org/entity/Q2243636","itemLabel":"Schloss Strünkede","latitude":"51.551309","longitude":"7.211183"},{"item":"http://www.wikidata.org/entity/Q2138427","itemLabel":"Musée régional de Neubrandenburg","latitude":"53.5569","longitude":"13.255"},{"item":"http://www.wikidata.org/entity/Q2239322","itemLabel":"Schleswig-Holsteinisches Freilichtmuseum","latitude":"54.2752","longitude":"10.079"},{"item":"http://www.wikidata.org/entity/Q2221305","itemLabel":"Sandsteinmuseum Bad Bentheim","latitude":"52.30317","longitude":"7.15499"},{"item":"http://www.wikidata.org/entity/Q2139635","itemLabel":"Reichspräsident-Friedrich-Ebert-Gedenkstätte","latitude":"49.4127","longitude":"8.7082"},{"item":"http://www.wikidata.org/entity/Q2242046","itemLabel":"Schloss Langenstein","latitude":"47.84277778","longitude":"8.90277778"},{"item":"http://www.wikidata.org/entity/Q2147480","itemLabel":"Rhein-Museum Koblenz","latitude":"50.3607","longitude":"7.61152"},{"item":"http://www.wikidata.org/entity/Q2174973","itemLabel":"Ruhlaer Uhrenmuseum","latitude":"50.9029","longitude":"10.3674"},{"item":"http://www.wikidata.org/entity/Q2084472","itemLabel":"Pfundsmuseum","latitude":"50.5507","longitude":"9.8763"},{"item":"http://www.wikidata.org/entity/Q2235841","itemLabel":"Schilling-Museum","latitude":"51.04971","longitude":"13.759"},{"item":"http://www.wikidata.org/entity/Q2138414","itemLabel":"Regionalmuseum Alsfeld","latitude":"50.7507","longitude":"9.27008"},{"item":"http://www.wikidata.org/entity/Q2234918","itemLabel":"Schiffahrtsmuseum Nordfriesland","latitude":"54.4754","longitude":"9.05106"},{"item":"http://www.wikidata.org/entity/Q2048525","itemLabel":"Paläontologisches Museum Nierstein","latitude":"49.8749","longitude":"8.33665"},{"item":"http://www.wikidata.org/entity/Q2210810","itemLabel":"Sackmuseum","latitude":"51.8049","longitude":"9.11039"},{"item":"http://www.wikidata.org/entity/Q2082269","itemLabel":"Pfalzmuseum für Naturkunde","latitude":"49.4614","longitude":"8.14939"},{"item":"http://www.wikidata.org/entity/Q2242823","itemLabel":"Schloss Oettingen","latitude":"48.9546","longitude":"10.6046"},{"item":"http://www.wikidata.org/entity/Q2018926","itemLabel":"Oldtimermuseum Meßkirch","latitude":"47.99333333","longitude":"9.10972222"},{"item":"http://www.wikidata.org/entity/Q2105523","itemLabel":"Porzellanikon","latitude":"50.1695","longitude":"12.1287"},{"item":"http://www.wikidata.org/entity/Q2109557","itemLabel":"Priental-Museum","latitude":"47.7657","longitude":"12.3221"},{"item":"http://www.wikidata.org/entity/Q2133582","itemLabel":"musée de Rautenstrauch-Joest","latitude":"50.93464","longitude":"6.95053"},{"item":"http://www.wikidata.org/entity/Q2010536","itemLabel":"Oberneulander Mühle","latitude":"53.086369","longitude":"8.936181"},{"item":"http://www.wikidata.org/entity/Q2428768","itemLabel":"Thonet-Museum","latitude":"51.0519","longitude":"8.78784"},{"item":"http://www.wikidata.org/entity/Q2326319","itemLabel":"Stadt- und Industriemuseum Rüsselsheim","latitude":"49.9994","longitude":"8.41907"},{"item":"http://www.wikidata.org/entity/Q2536891","itemLabel":"WBG-Museum Augsburg","latitude":"48.367","longitude":"10.881"},{"item":"http://www.wikidata.org/entity/Q2474193","itemLabel":"Uhrensammlung Karl Gebhardt","latitude":"49.4517","longitude":"11.0833"},{"item":"http://www.wikidata.org/entity/Q2327646","itemLabel":"Stadtmuseum Erfurt","latitude":"50.97952","longitude":"11.03483"},{"item":"http://www.wikidata.org/entity/Q2430867","itemLabel":"Thüringer Museum für Elektrotechnik Erfurt","latitude":"50.9884","longitude":"11.0443"},{"item":"http://www.wikidata.org/entity/Q2555470","itemLabel":"Weihnachtshaus Husum","latitude":"54.4772","longitude":"9.04394"},{"item":"http://www.wikidata.org/entity/Q2475379","itemLabel":"Ulmer Museum","latitude":"48.397","longitude":"9.99481"},{"item":"http://www.wikidata.org/entity/Q2412294","itemLabel":"The Kennedys (Museum)","latitude":"52.5167","longitude":"13.3833"},{"item":"http://www.wikidata.org/entity/Q2430787","itemLabel":"Thüringer Freilichtmuseum Hohenfelden","latitude":"50.8891","longitude":"11.1647"},{"item":"http://www.wikidata.org/entity/Q2327648","itemLabel":"Stadtmuseum Fembohaus","latitude":"49.456549168857","longitude":"11.077170977427"},{"item":"http://www.wikidata.org/entity/Q2327658","itemLabel":"Stadtmuseum Halle","latitude":"51.4803","longitude":"11.9714"},{"item":"http://www.wikidata.org/entity/Q2348650","itemLabel":"Kollegiatstift/Augustinerchorherrenstift Sindelfingen","latitude":"48.71097","longitude":"9.00087"},{"item":"http://www.wikidata.org/entity/Q2538899","itemLabel":"Waffenmuseum Suhl","latitude":"50.6103","longitude":"10.6894"},{"item":"http://www.wikidata.org/entity/Q2474182","itemLabel":"Uhrenmuseum Bad Iburg","latitude":"52.1583","longitude":"8.04639"},{"item":"http://www.wikidata.org/entity/Q2339190","itemLabel":"Steiff Museum","latitude":"48.6211","longitude":"10.2416"},{"item":"http://www.wikidata.org/entity/Q2401440","itemLabel":"Telefonmuseum Bochum","latitude":"51.4888","longitude":"7.24185"},{"item":"http://www.wikidata.org/entity/Q2553541","itemLabel":"Webmuseum Oederan","latitude":"50.8618","longitude":"13.1679"},{"item":"http://www.wikidata.org/entity/Q2532065","itemLabel":"Volkskunde Museum Schleswig","latitude":"54.51821072","longitude":"9.54778433"},{"item":"http://www.wikidata.org/entity/Q2464080","itemLabel":"Töpfermuseum Breitscheid","latitude":"50.6853","longitude":"8.186"},{"item":"http://www.wikidata.org/entity/Q2460905","itemLabel":"Turm der Sinne","latitude":"49.45221056","longitude":"11.06951952"},{"item":"http://www.wikidata.org/entity/Q2557563","itemLabel":"Wella Museum","latitude":"49.8647","longitude":"8.63588"},{"item":"http://www.wikidata.org/entity/Q2494394","itemLabel":"Musée Unikatum à Leipzig","latitude":"51.3314","longitude":"12.338"},{"item":"http://www.wikidata.org/entity/Q2441502","itemLabel":"Tonbergbaumuseum Siershahn","latitude":"50.4855","longitude":"7.7655"},{"item":"http://www.wikidata.org/entity/Q2409247","itemLabel":"Thaulow-Museum","latitude":"54.318346538186","longitude":"10.132621791523"},{"item":"http://www.wikidata.org/entity/Q2327642","itemLabel":"Stadtmuseum Brilon","latitude":"51.3933","longitude":"8.57389"},{"item":"http://www.wikidata.org/entity/Q2359928","itemLabel":"Städtische Galerie Böblingen","latitude":"48.6849","longitude":"9.01057"},{"item":"http://www.wikidata.org/entity/Q2430878","itemLabel":"Thüringer Orgelmuseum Bechstedtstraß","latitude":"50.9574","longitude":"11.1958"},{"item":"http://www.wikidata.org/entity/Q2352068","itemLabel":"Storchenturm-Museum","latitude":"48.3462","longitude":"8.06319"},{"item":"http://www.wikidata.org/entity/Q2443934","itemLabel":"Torf- und Siedlungsmuseum","latitude":"53.4181","longitude":"7.72519"},{"item":"http://www.wikidata.org/entity/Q2327662","itemLabel":"Stadtmuseum Hofheim am Taunus","latitude":"50.0871","longitude":"8.44654"},{"item":"http://www.wikidata.org/entity/Q2327183","itemLabel":"Musée de l'histoire de la ville de Leipzig","latitude":"51.34183","longitude":"12.37638"},{"item":"http://www.wikidata.org/entity/Q2326348","itemLabel":"Musée de la ville et de l'échelle d'Oschatz","latitude":"51.297","longitude":"13.106"},{"item":"http://www.wikidata.org/entity/Q2354771","itemLabel":"Straßenbahnmuseum Kassel","latitude":"51.31","longitude":"9.52083"},{"item":"http://www.wikidata.org/entity/Q2359946","itemLabel":"Städtische Galerie Wolfsburg","latitude":"52.4392","longitude":"10.7994"},{"item":"http://www.wikidata.org/entity/Q2386256","itemLabel":"Tabakmuseum Mahlberg","latitude":"48.2855","longitude":"7.80716"},{"item":"http://www.wikidata.org/entity/Q2327176","itemLabel":"Stadtgeschichtliches Museum der Hansestadt Wismar","latitude":"53.8951","longitude":"11.4665"},{"item":"http://www.wikidata.org/entity/Q2460439","itemLabel":"Turbinenmuseum Augsburg","latitude":"48.3638","longitude":"10.9268"},{"item":"http://www.wikidata.org/entity/Q2563859","itemLabel":"Weserburg Museum für moderne Kunst","latitude":"53.07667","longitude":"8.79862"},{"item":"http://www.wikidata.org/entity/Q2500877","itemLabel":"Urmensch-Museum","latitude":"48.9648","longitude":"9.27931"},{"item":"http://www.wikidata.org/entity/Q2327607","itemLabel":"Stadtmauermuseum","latitude":"48.8544","longitude":"10.4927"},{"item":"http://www.wikidata.org/entity/Q2327651","itemLabel":"Stadtmuseum Fürth","latitude":"49.473748","longitude":"10.987161"},