item,itemLabel,latitude,longitude
http://www.wikidata.org/entity/Q22616,Feuerbachhaus,49.3146,8.43567
http://www.wikidata.org/entity/Q454078,Belvédère sur la Pfingstberg,52.4187,13.059
http://www.wikidata.org/entity/Q473848,Porzellansammlung,51.0522,13.7346
http://www.wikidata.org/entity/Q533069,Herzogliches Georgianum,48.149976096222,11.581743654367
http://www.wikidata.org/entity/Q573676,Drachenhaus,52.4061,13.0215
http://www.wikidata.org/entity/Q435596,Alte Gerberei (Ohrdruf),50.8297,10.7344
http://www.wikidata.org/entity/Q201033,"Geschichtsort Villa ten Hompel. Münster in Westfalen, Allemagne",51.9663,7.64653
http://www.wikidata.org/entity/Q162017,Deutsches Motorrollermuseum,50.0895,7.75949
http://www.wikidata.org/entity/Q573656,château de Schwerin,53.624166666667,11.418888888889
http://www.wikidata.org/entity/Q570620,cabinet de chalcographie,51.0527,13.7369
http://www.wikidata.org/entity/Q191193,Zentrum für Außergewöhnliche Museen,48.135,11.58
http://www.wikidata.org/entity/Q430550,nouvelle résidence de Bamberg,49.891666666667,10.8825
http://www.wikidata.org/entity/Q432989,Alt-Segeberger Bürgerhaus,53.9364,10.314
http://www.wikidata.org/entity/Q151195,Ordensburg Vogelsang,50.5844,6.44806
http://www.wikidata.org/entity/Q449280,Fridericianum,51.3136,9.4975
http://www.wikidata.org/entity/Q510343,musée Alexander Koenig,50.7221615,7.113381
http://www.wikidata.org/entity/Q473832,Paläontologisches Museum,48.1476,11.5638
http://www.wikidata.org/entity/Q473831,château de Mosigkau,51.806,12.1508
http://www.wikidata.org/entity/Q4890,Gemäldegalerie Alte Meister Dresde,51.05338,13.73466
http://www.wikidata.org/entity/Q4890,Gemäldegalerie Alte Meister Dresde,51.053388,13.734707
http://www.wikidata.org/entity/Q422975,Handweberei „Henni Jaensch-Zeymer“,52.366389,12.955833
http://www.wikidata.org/entity/Q564207,château de Lahneck,50.3063,7.61246
http://www.wikidata.org/entity/Q198603,Musée de la briqueterie Glindow,52.3544,12.9225
http://www.wikidata.org/entity/Q481219,Amtshaus (Grünsfeld),49.6084,9.7457
http://www.wikidata.org/entity/Q477607,Schloss vor Husum,54.4799,9.04982
http://www.wikidata.org/entity/Q191195,Zentrum für Biodokumentation,49.35,7.11139
http://www.wikidata.org/entity/Q159556,Collection Philippi,49.2864,7.22141
http://www.wikidata.org/entity/Q452362,musée régional de la Hesse,49.8747,8.65306
http://www.wikidata.org/entity/Q163291,Kultur- und Militärmuseum Grafenwöhr,49.720486,11.904113
http://www.wikidata.org/entity/Q371836,"Museum Würth. Künzelsau, Allemagne",49.2586,9.67918
http://www.wikidata.org/entity/Q574088,Türckische Cammer,51.05289,13.73635
http://www.wikidata.org/entity/Q191427,musée Zeppelin,47.65056,9.48303
http://www.wikidata.org/entity/Q152966,musée de la chasse et de la pêche,48.1384,11.5711
http://www.wikidata.org/entity/Q154996,château de Charlottenbourg,52.521111,13.295833
http://www.wikidata.org/entity/Q501944,Wendisches Museum,51.7598,14.3345
http://www.wikidata.org/entity/Q164502,Haus Ludwig,49.3136,6.74891
http://www.wikidata.org/entity/Q571773,Rüstkammer,51.05254,13.73743
http://www.wikidata.org/entity/Q474841,musée Gutenberg,49.999722222222,8.2752777777778
http://www.wikidata.org/entity/Q126971,Altonaer Museum,53.54902,9.9347
http://www.wikidata.org/entity/Q191397,Zeppelin-Museum Meersburg,47.69392,9.27168
http://www.wikidata.org/entity/Q186043,Zeitgeschichtliches Forum Leipzig,51.3397,12.3758
http://www.wikidata.org/entity/Q447441,Bergpark Wilhelmshöhe,51.3167,9.4
http://www.wikidata.org/entity/Q179062,château Weissenstein,49.763094540769,10.82088737696
http://www.wikidata.org/entity/Q157886,monastère de Maulbronn,49.0011,8.8129
http://www.wikidata.org/entity/Q538183,"Angermuseum. Erfurt, Allemagne",50.9756,11.0342
http://www.wikidata.org/entity/Q152802,Buchenwald,51.021198,11.248999
http://www.wikidata.org/entity/Q179062,château Weissenstein,49.76274,10.82049
http://www.wikidata.org/entity/Q372030,Erzgebirgsmuseum,50.5784,13.0043
http://www.wikidata.org/entity/Q396139,Barnim Panorama,52.7524,13.4538
http://www.wikidata.org/entity/Q468169,musée Suermondt-Ludwig,50.7735,6.09569
http://www.wikidata.org/entity/Q167314,château de la Résidence de Dresde,51.052778,13.736944
http://www.wikidata.org/entity/Q159556,Collection Philippi,49.481972222222,7.0310277777778
http://www.wikidata.org/entity/Q504517,château de Weikersheim,49.4806,9.89583
http://www.wikidata.org/entity/Q254134,Musée égyptien de l'Université de Leipzig,51.33986389,12.38
http://www.wikidata.org/entity/Q574723,château de Mannheim,49.4829,8.46177
http://www.wikidata.org/entity/Q179134,Museum zur Vorgeschichte des Films,51.4291,6.86818
http://www.wikidata.org/entity/Q565296,Anne Frank Zentrum,52.5245,13.4017
http://www.wikidata.org/entity/Q129314,Burg Pyrmont,50.2374,7.28765
http://www.wikidata.org/entity/Q160385,Haus Schminke,51.1004,14.6594
http://www.wikidata.org/entity/Q162052,château de Linderhof,47.571618654761,10.96075437605
http://www.wikidata.org/entity/Q458586,Jura Museum,48.895,11.1686
http://www.wikidata.org/entity/Q466256,U-Boot-Bunker Valentin,53.2167,8.50417
http://www.wikidata.org/entity/Q452685,Münchner Stadtmuseum,48.135111111111,11.572583333333
http://www.wikidata.org/entity/Q512271,château de Trausnitz,48.531675138182,12.152121628519
http://www.wikidata.org/entity/Q157298,musée de Pergame,52.521,13.396
http://www.wikidata.org/entity/Q153171,Grotte de Barberousse,51.375555555556,11.036388888889
http://www.wikidata.org/entity/Q161768,1. Berliner DDR-Motorradmuseum,52.5231,13.4077
http://www.wikidata.org/entity/Q439518,Altes Rathaus,49.9861,6.88745
http://www.wikidata.org/entity/Q422988,Musée interactif Spiegelgasse,50.0851,8.24275
http://www.wikidata.org/entity/Q470564,Hadamar,50.4508,8.04178
http://www.wikidata.org/entity/Q506465,Reichsburg Cochem,50.1422,7.16694
http://www.wikidata.org/entity/Q531028,château de Moyland,51.7553,6.23681
http://www.wikidata.org/entity/Q22600,Museum SchPIRA,49.316475,8.439654
http://www.wikidata.org/entity/Q22573,château de Berwartstein,49.1083,7.86278
http://www.wikidata.org/entity/Q463748,Karl-Marx-Haus,49.753889,6.635556
http://www.wikidata.org/entity/Q22625,musée allemand de la chaussure de Hauenstein,49.18984,7.85612
http://www.wikidata.org/entity/Q525226,Musterhaus Am Horn,50.9739,11.3394
http://www.wikidata.org/entity/Q151456,Bilderbuchmuseum,50.8174,7.16572
http://www.wikidata.org/entity/Q156316,résidence de Würzburg,49.79279761747,9.9388890432453
http://www.wikidata.org/entity/Q131631,château Nymphenburg,48.158056,11.503611
http://www.wikidata.org/entity/Q459493,maison de Luther,51.8642,12.6525
http://www.wikidata.org/entity/Q157550,abbaye et Altenmünster de Lorsch,49.65369,8.56858
http://www.wikidata.org/entity/Q457196,Dialog im Dunkeln,53.54619444,10.00161111
http://www.wikidata.org/entity/Q227776,Zucker-Museum,52.5456,13.3453
http://www.wikidata.org/entity/Q205072,Zinnfigurenklause,47.99277778,7.85416667
http://www.wikidata.org/entity/Q390508,mémorial de Berlin-Hohenschönhausen,52.5417,13.5011
http://www.wikidata.org/entity/Q153426,château d'Eltz,50.205,7.3366666666667
http://www.wikidata.org/entity/Q198593,Usine de briques Lage,52.025,8.77861111
http://www.wikidata.org/entity/Q157550,abbaye et Altenmünster de Lorsch,49.653888888889,8.5688888888889
http://www.wikidata.org/entity/Q499901,musée Wilhelm-Hack,49.4801,8.44407
http://www.wikidata.org/entity/Q450048,abbaye de Schussenried,48.0073,9.65858
http://www.wikidata.org/entity/Q439212,Altes Grassimuseum,51.3336,12.3747
http://www.wikidata.org/entity/Q469084,maison du Climat,53.5434,8.5744
http://www.wikidata.org/entity/Q436381,Alte Wasserkunst,51.180666666667,14.420647222222
http://www.wikidata.org/entity/Q256160,maison royale de Schachen,47.419697222222,11.112586111111
http://www.wikidata.org/entity/Q520455,musée alpin de Munich,48.13519722,11.58902222
http://www.wikidata.org/entity/Q375841,Festung Peitz,51.8574,14.4094
http://www.wikidata.org/entity/Q570472,musée de la Stasi,52.51444444,13.4875
http://www.wikidata.org/entity/Q469234,musées de Dahlem,52.456111,13.292222
http://www.wikidata.org/entity/Q529069,Kunstmuseum Bochum,51.4874,7.22122
http://www.wikidata.org/entity/Q228479,Zugpferdemuseum,53.43587,10.55005
http://www.wikidata.org/entity/Q157316,Neues Museum,52.5202,13.3976
http://www.wikidata.org/entity/Q22838,Purrmann-Haus,49.3185,8.43482
http://www.wikidata.org/entity/Q385087,Afrika-Haus Freiberg,48.9378,9.17942
http://www.wikidata.org/entity/Q576077,Antikenmuseum im Schnoor,53.0731,8.81169
http://www.wikidata.org/entity/Q56007,Baracke Wilhelmine,53.2234,8.54258
http://www.wikidata.org/entity/Q156803,château de Moritzburg,51.167572222222,13.679611111111
http://www.wikidata.org/entity/Q394429,Agnes-Miegel-Haus,52.332,9.37401
http://www.wikidata.org/entity/Q191399,Zeppelin-Museum Zeppelinheim,50.035,8.6146
http://www.wikidata.org/entity/Q468496,Reiss-Engelhorn-Museen,49.4889,8.46212
http://www.wikidata.org/entity/Q516770,bâtiment du Bauhaus,51.8392,12.2267
http://www.wikidata.org/entity/Q153891,Graacher Tor,49.916972222222,7.0758611111111
http://www.wikidata.org/entity/Q542084,Vorderasiatisches Museum Berlin,52.52069444,13.39680556
http://www.wikidata.org/entity/Q560033,centre de documentation sur le nazisme,50.940615548427,6.9501770929199
http://www.wikidata.org/entity/Q569445,Martin-Gropius-Bau,52.5066,13.3818
http://www.wikidata.org/entity/Q156457,château de Hohenzollern,48.322988888889,8.9683305555556
http://www.wikidata.org/entity/Q198590,Ziegelei Erbs,51.1693,12.271
http://www.wikidata.org/entity/Q409578,Aischgründer Karpfenmuseum,49.581805555556,10.607694444444
http://www.wikidata.org/entity/Q4152,château de Neuschwanstein,47.557488542843,10.74944180794
http://www.wikidata.org/entity/Q576074,Musée des antiquités de l'université de Leipzig,51.3413,12.3783
http://www.wikidata.org/entity/Q151545,château de Wartbourg,50.9662,10.3065
http://www.wikidata.org/entity/Q573662,palais de Marbre,52.412672222222,13.06975
http://www.wikidata.org/entity/Q464416,musée de l'Homme de Néanderthal,51.2269,6.95056
http://www.wikidata.org/entity/Q233098,musée d'histoire naturelle de Berlin,52.5302,13.3792
http://www.wikidata.org/entity/Q455354,Deutsches Schifffahrtsmuseum,53.5401,8.577
http://www.wikidata.org/entity/Q1954607,Museum für Archäologie und Ökologie Dithmarschen,54.146,9.29167
http://www.wikidata.org/entity/Q1954533,Museum der Badekultur,50.6904,6.6478
http://www.wikidata.org/entity/Q1954455,Museum Kulturgeschichte der Hand,48.608611,11.618778
http://www.wikidata.org/entity/Q1970386,Naturmuseum Augsburg,48.3708,10.8955
http://www.wikidata.org/entity/Q1987982,Niederlausitzer Museumseisenbahn,51.7386773,13.742152
http://www.wikidata.org/entity/Q1971634,Naturwissenschaftliches Museum Flensburg,54.7857,9.43158
http://www.wikidata.org/entity/Q1954499,Museum Uslar,51.6583,9.63361
http://www.wikidata.org/entity/Q1954423,Museum Eisenheim,51.5037,6.86366
http://www.wikidata.org/entity/Q1954549,Museum der Münze Berlin,52.5728,13.3298
http://www.wikidata.org/entity/Q1954691,Museum für Vor- und Frühgeschichte de Sarrebruck,49.2308,6.9914
http://www.wikidata.org/entity/Q1954433,Museum Festung Dresden,51.0527,13.7438
http://www.wikidata.org/entity/Q1954558,Museum der Schwalm,50.9109,9.2347
http://www.wikidata.org/entity/Q1998605,Nordfriesland Museum Husum,54.47521,9.05606
http://www.wikidata.org/entity/Q1954627,Museum für historische Wehrtechnik,49.4765,11.2208
http://www.wikidata.org/entity/Q1954536,Museum der Brotkultur,48.400833,9.99
http://www.wikidata.org/entity/Q1954470,Museum Lothar Fischer,49.2818,11.463
http://www.wikidata.org/entity/Q1954717,Musée Ludwig Roselius,53.075,8.80583
http://www.wikidata.org/entity/Q1969872,Natur- und Landschaftsmuseum,50.557,6.76447
http://www.wikidata.org/entity/Q1954689,Museum für Vor- und Frühgeschichte (Köln),50.9237,6.96698
http://www.wikidata.org/entity/Q1954807,Museumsdorf Bayerischer Wald,48.739524053369,13.351717920313
http://www.wikidata.org/entity/Q1954562,Museum der Stadt Neustadt in Holstein,54.1094,10.8164
http://www.wikidata.org/entity/Q2001665,Nostalgie-Museum,48.98899,12.451072
http://www.wikidata.org/entity/Q1954699,Museum für brandenburgische Kirchen- und Kulturgeschichte des Mittelalters,52.2627,12.2868
http://www.wikidata.org/entity/Q1954571,Weltkulturen Museum,50.1056,8.67889
http://www.wikidata.org/entity/Q1954630,Museum für Glaskunst Lauscha,50.477,11.1595
http://www.wikidata.org/entity/Q1954796,Museumsbauernhof Wennerstorf,53.3611,9.77732
http://www.wikidata.org/entity/Q1970368,Naturkundliches Museum (Schweinfurt),50.04359,10.2373
http://www.wikidata.org/entity/Q1954606,musée de la Navigation antique,49.9941,8.28042
http://www.wikidata.org/entity/Q1954642,Museum für Kommunikation Hamburg,53.55788889,9.98797222
http://www.wikidata.org/entity/Q1954645,Museum für Kunst und Technik des 19. Jahrhunderts,48.7591,8.23803
http://www.wikidata.org/entity/Q1954536,Museum der Brotkultur,48.401,9.99008
http://www.wikidata.org/entity/Q1954769,Museum und Archiv der Deutschen Gesellschaft für Urologie,51.2513,6.76643
http://www.wikidata.org/entity/Q1954505,"Museum für Wasser, Bad und Design",48.2908,8.34726
http://www.wikidata.org/entity/Q1954612,Museum für Druckkunst,51.3288,12.3433
http://www.wikidata.org/entity/Q1954678,Museum für Ur- und Frühgeschichte Frauwalde,51.4017437,12.9192222
http://www.wikidata.org/entity/Q1954818,Museumsfeldbahn Leipzig-Lindenau,51.335,12.3005
http://www.wikidata.org/entity/Q1957985,Mönchguter Küstenfischermuseum,54.3538,13.6983
http://www.wikidata.org/entity/Q1954508,Museum Wäschefabrik,52.0212,8.5422
http://www.wikidata.org/entity/Q1954579,Musée de la guerre de Trente Ans,53.1593,12.4857
http://www.wikidata.org/entity/Q1997817,Norddeutsches Krippenmuseum,53.7916,12.1782
http://www.wikidata.org/entity/Q1954675,Musée d'histoire de la ville (Fribourg-en-Brisgau),47.99493,7.85315
http://www.wikidata.org/entity/Q1954486,Museum Schloss Rosenstein,48.8005,9.206
http://www.wikidata.org/entity/Q1961427,Centre de documentation sur l'histoire du national-socialisme,48.14527778,11.5675
http://www.wikidata.org/entity/Q1954775,Museum vaterländischer Alterthümer,54.3251,10.1396
http://www.wikidata.org/entity/Q1954720,Museum à Spital,50.5885,8.9623
http://www.wikidata.org/entity/Q1954429,Museum Europäischer Kunst,50.8081,6.64492
http://www.wikidata.org/entity/Q1954527,Museum der 50er Jahre (Bremerhaven),53.5907,8.54988
http://www.wikidata.org/entity/Q1954493,Museum St. Ingbert,49.2789,7.1124
http://www.wikidata.org/entity/Q1979646,Neue Mühle (Erfurt),50.9767,11.03
http://www.wikidata.org/entity/Q1954481,Musée Quintana,48.6688,13.0785
http://www.wikidata.org/entity/Q1954510,Museum Zitadelle,50.9255,6.36006
http://www.wikidata.org/entity/Q1954444,Museum Hofmühle Immenstadt,47.561810498382,10.221449310091
http://www.wikidata.org/entity/Q1954669,Museum für Puppentheaterkultur,49.8461,7.84713
http://www.wikidata.org/entity/Q1954458,Museum Künstlerkolonie Darmstadt,49.8765,8.66819
http://www.wikidata.org/entity/Q1954451,Museum KeltenKeller,50.6202,8.59447
http://www.wikidata.org/entity/Q1954707,Museum für dörfliche Alltagskultur,49.17377778,7.20719444
http://www.wikidata.org/entity/Q1971642,Naturzentrum Eifel,50.4898,6.62818
http://www.wikidata.org/entity/Q1954668,Musée d'art moderne (Fribourg-en-Brisgau),47.99277778,7.8525
http://www.wikidata.org/entity/Q1970349,Naturkunde-Museum Bielefeld,52.0165,8.52857
http://www.wikidata.org/entity/Q1954625,Museum für Gegenwartskunst,50.8739,8.02243
http://www.wikidata.org/entity/Q1954666,Museum für Naturkunde Magdeburg,52.1256,11.6295
http://www.wikidata.org/entity/Q1954652,Museum für Meereskunde,52.5198,13.3912
http://www.wikidata.org/entity/Q1955936,maison de la mère de Beethoven,50.359825,7.6109
http://www.wikidata.org/entity/Q1970271,Natureum Darßer Ort,54.4728,12.5028
http://www.wikidata.org/entity/Q1954838,Museumslandschaft Deilbachtal,51.3828,7.10167
http://www.wikidata.org/entity/Q1954544,Museum der Göttinger Chemie,51.5583,9.94953
http://www.wikidata.org/entity/Q1954644,musée de la communication de Nuremberg,49.44555556,11.07444444
http://www.wikidata.org/entity/Q1954616,Museum für Frühindustrialisierung,51.2661,7.18989
http://www.wikidata.org/entity/Q1954721,Museum im Ursula-Stift und Schmiede am Stift,48.6412,9.95754
http://www.wikidata.org/entity/Q1970394,Naturmuseum Lüneburg,53.2472,10.404
http://www.wikidata.org/entity/Q1954671,Museum für Regionalgeschichte und Kunst,53.4768,9.70171
http://www.wikidata.org/entity/Q1954723,Museum im Zeughaus,52.7266,8.27776
http://www.wikidata.org/entity/Q1954479,Museum Pegau,51.166757183263,12.255546646027
http://www.wikidata.org/entity/Q1954452,Museum Klaushäusl,47.785009062976,12.426902887185
http://www.wikidata.org/entity/Q1988652,Musée d'art et d'histoire de Basse-Saxe,53.1377,8.21638
http://www.wikidata.org/entity/Q1954566,musée de l'université de Tübingen,48.51949,9.05079
http://www.wikidata.org/entity/Q1954677,"Museum für Thüringer Volkskunde. Erfurt, Allemagne",50.9814,11.0356
http://www.wikidata.org/entity/Q1987600,Niederbayerische Freilichtmuseen Massing und Finsterau,48.935,13.5631
http://www.wikidata.org/entity/Q1954487,Musée du château de Fechenbach,49.8997,8.83833
http://www.wikidata.org/entity/Q1954556,Museum der Salzmannschule Schnepfenthal,50.8841,10.5738
http://www.wikidata.org/entity/Q1970276,Natureum Niederelbe,53.8228,9.03519
http://www.wikidata.org/entity/Q1955082,Musikantenland-Museum,49.5557,7.35581
http://www.wikidata.org/entity/Q1954725,LWL-Museum in der Kaiserpfalz,51.7194,8.75528
http://www.wikidata.org/entity/Q1954521,Museum am Löwentor,48.8053,9.19028
http://www.wikidata.org/entity/Q1954573,Museum der historischen Waschtechnik,52.0766,7.77841
http://www.wikidata.org/entity/Q1954810,Museumsdorf Volksdorf,53.64972222,10.16833333
http://www.wikidata.org/entity/Q1954715,Museum im Malhaus,47.5667,9.62989
http://www.wikidata.org/entity/Q1954503,Museum Wilnsdorf,50.8168,8.11056
http://www.wikidata.org/entity/Q1954541,Museum der Deutschen Binnenschifffahrt,51.46,6.73
http://www.wikidata.org/entity/Q1954697,Museum für aktuelle Kunst – Sammlung Hurrle,48.4923,7.99672
http://www.wikidata.org/entity/Q1954513,Museum am Dom Trier,49.7566,6.64491
http://www.wikidata.org/entity/Q1954495,Museum Steinacher Spielzeugschachtel,50.4325,11.1561
http://www.wikidata.org/entity/Q1954836,Cour du musée de Winsen,52.6803,9.92056
http://www.wikidata.org/entity/Q1970389,Museum Natur und Mensch (Fribourg-en-Brisgau),47.99331,7.85159
http://www.wikidata.org/entity/Q1341459,Instrumentarium,49.0691,7.79885
http://www.wikidata.org/entity/Q1352513,Historisches Museum Bremerhaven,53.5388,8.58565
http://www.wikidata.org/entity/Q1297033,Schloss Wolkenburg,50.9023,12.6738
http://www.wikidata.org/entity/Q1300457,Museum der Grafschaft Rantzau,53.7829,9.76021
http://www.wikidata.org/entity/Q1244885,Dorfmuseum Münkeboe,53.5152,7.37359
http://www.wikidata.org/entity/Q1354757,Erinnerungsstätte Matthias Erzberger,48.3593,9.47764
http://www.wikidata.org/entity/Q1343903,musées des pompiers à Francfort-sur-le-Main,50.1781,8.66083
http://www.wikidata.org/entity/Q1274894,Europäisches Spargelmuseum,48.5596908,11.2640254
http://www.wikidata.org/entity/Q1283434,Alamannenmuseum Ellwangen,48.9641,10.1278
http://www.wikidata.org/entity/Q1359753,Tricensimae,51.6667,6.45
http://www.wikidata.org/entity/Q1350085,Erfatal-Museum,49.609,9.47419
http://www.wikidata.org/entity/Q1349004,Heimatstube Reichenberg,48.3611,10.8975
http://www.wikidata.org/entity/Q1320374,Europäisches Brotmuseum,51.5689,10.0997
http://www.wikidata.org/entity/Q1274757,Städtisches Museum Seesen,51.8926,10.172
http://www.wikidata.org/entity/Q1354653,Erinnerungs- und Gedenkstätte Wewelsburg 1933–1945,51.6066,8.65254
http://www.wikidata.org/entity/Q1292862,Museum Industriekultur,52.3151,8.00886
http://www.wikidata.org/entity/Q1250302,Motorradmuseum Heiner Beckmann,51.9626,8.14011
http://www.wikidata.org/entity/Q1332706,Landesmuseum Württemberg,48.777,9.17947
http://www.wikidata.org/entity/Q1283363,Vorpommersches Kartoffelmuseum,54.095091666667,12.757686111111
http://www.wikidata.org/entity/Q1358031,Museum am Meer,54.1276,8.8635
http://www.wikidata.org/entity/Q1297463,Eggemuseum,51.7626,8.93517
http://www.wikidata.org/entity/Q1325723,Schillerhaus Weimar,50.9789,11.3278
http://www.wikidata.org/entity/Q1257975,musée des Trois Pays,47.60985556,7.65989722
http://www.wikidata.org/entity/Q1302561,Orgelbaumuseum Schloss Hanstein,50.4586,10.235
http://www.wikidata.org/entity/Q1278415,Ernst Barlach Museum Ratzeburg,53.6985,10.7732
http://www.wikidata.org/entity/Q1352684,Erich Kästner Museum,51.0638,13.7457
http://www.wikidata.org/entity/Q1356357,Technikmuseum Magdeburg,52.1041,11.626
http://www.wikidata.org/entity/Q1339301,Schifflersgrund,51.2853,9.99361
http://www.wikidata.org/entity/Q1265226,Volkskundemuseum in Schönberg,53.844626,10.933607
http://www.wikidata.org/entity/Q1287060,Museum Tuch + Technik Neumünster,54.0716,9.98119
http://www.wikidata.org/entity/Q1260954,Druckmuseum/Haus für Industriekultur,49.8809,8.63618
http://www.wikidata.org/entity/Q1294333,Fürstenhäusle,47.69453611,9.27540278
http://www.wikidata.org/entity/Q1324758,Kutschenmuseum Hinterstein,47.4748,10.4084
http://www.wikidata.org/entity/Q1349581,Erdöl-Erdgas-Museum Twist,52.6473,7.09511
http://www.wikidata.org/entity/Q1307805,musée municipal de Münster,51.960933,7.633074
http://www.wikidata.org/entity/Q1315993,Elstermühle Plessa,51.4628,13.63
http://www.wikidata.org/entity/Q1244879,Musée du village de Gahlenz,50.8368,13.2224
http://www.wikidata.org/entity/Q1354753,Erinnerungsort Topf & Söhne,50.9723,11.0487
http://www.wikidata.org/entity/Q1318105,Freilichtmuseum Ammerländer Bauernhaus,53.182947,8.017652
http://www.wikidata.org/entity/Q1260001,Körnermuseum,51.059,13.7386
http://www.wikidata.org/entity/Q1317292,Hammermuseum Frankfurt,50.1074,8.66802
http://www.wikidata.org/entity/Q1252305,Landschafts-Informationszentrum,51.49484,8.04821
http://www.wikidata.org/entity/Q1339736,Emsland Moormuseum,52.6234,7.18556
http://www.wikidata.org/entity/Q1288040,Portable Art Museum,50.788,6.49223
http://www.wikidata.org/entity/Q1321861,Museum Haldensleben,52.2894,11.4111
http://www.wikidata.org/entity/Q1313064,Eisenkunstguss-Museum Büdelsdorf,54.3134,9.66712
http://www.wikidata.org/entity/Q1250530,Fledermaus-Museum Julianenhof,52.5877,14.1187
http://www.wikidata.org/entity/Q1342514,Schulze-Delitzsch-Haus – Deutsches Genossenschaftsmuseum,51.5221,12.3345
http://www.wikidata.org/entity/Q1274463,EFA MOBILE ZEITEN,47.9964,12.3074
http://www.wikidata.org/entity/Q1282558,Allgäuer Bergbauernmuseum,47.614619545927,10.175927793535
http://www.wikidata.org/entity/Q1343014,Museum für Mineralogie und Geologie Dresden,51.1289,13.79
http://www.wikidata.org/entity/Q1258512,Dresdner Fußballmuseum,51.0592,13.7419
http://www.wikidata.org/entity/Q1253547,musée d'histoire naturelle de Chemnitz,50.8309,12.9233
http://www.wikidata.org/entity/Q1341197,Energie-Museum Berlin,52.4436,13.33
http://www.wikidata.org/entity/Q1296155,Landsynagoge Heubach,50.3839,9.71794
http://www.wikidata.org/entity/Q1305061,musée d’Art populaire saxon avec sa collection de théâtre de marionnettes,51.0578,13.7439
http://www.wikidata.org/entity/Q1271054,Museum für Kommunikation Berlin,52.5097,13.3869
http://www.wikidata.org/entity/Q1305815,Fränkisches Freilandmuseum Fladungen,50.5219521,10.1519331
http://www.wikidata.org/entity/Q1326181,Electrum,53.464156,9.982038
http://www.wikidata.org/entity/Q1278601,Weizenglasmuseum Nürnberg,49.464726,11.172473
http://www.wikidata.org/entity/Q1249029,Museum für Büro- und Kommunikationsgeschichte,49.893056,10.886667
http://www.wikidata.org/entity/Q1328893,Kunstforum Ostdeutsche Galerie,49.0198,12.0822
http://www.wikidata.org/entity/Q1273976,Glasmuseum Immenhausen,51.4274,9.4656
http://www.wikidata.org/entity/Q1360068,KraftWerk – Dresdner Energiemuseum,51.05338,13.72207
http://www.wikidata.org/entity/Q1321063,Eiszeitmuseum,54.3031,10.5623
http://www.wikidata.org/entity/Q1344151,Orgelbaumuseum Klosterhäseler,51.162561,11.6112
http://www.wikidata.org/entity/Q1257540,Kornbrennereimuseum,51.9833,7.78528
http://www.wikidata.org/entity/Q1270146,Herbergsmuseum,51.788247222222,10.957038888889
http://www.wikidata.org/entity/Q1351312,Reuter-Wagner-Museum,50.968,10.3196
http://www.wikidata.org/entity/Q1341274,musée de l'énergie de Knappenrode,51.3975,14.3292
http://www.wikidata.org/entity/Q1341862,Römermuseum Mengen-Ennetach,48.0523,9.31857
http://www.wikidata.org/entity/Q1359068,Kunstmuseum Bayreuth,49.9438899,11.5746336
http://www.wikidata.org/entity/Q1278232,Leonhardi-Museum,51.0551,13.8168
http://www.wikidata.org/entity/Q1344377,Fastnachtsmuseum Narrenburg,48.217,9.23328
http://www.wikidata.org/entity/Q1280968,Stadtmuseum Gera,50.8766,12.0806
http://www.wikidata.org/entity/Q1295010,Steuermuseum,50.8316,6.88317
http://www.wikidata.org/entity/Q1354762,Erinnerungsstätte für die Freiheitsbewegungen in der deutschen Geschichte,48.8586,8.20444
http://www.wikidata.org/entity/Q1423672,Museum Industriekultur,49.4611,11.1108
http://www.wikidata.org/entity/Q1409289,Museum für Sepulkralkultur,51.3092,9.48806
http://www.wikidata.org/entity/Q1402976,Hoesch-Museum,51.5297,7.48306
http://www.wikidata.org/entity/Q1409387,Feuchtmayer Museum,47.761531,9.283664
http://www.wikidata.org/entity/Q1417534,Haus Haller Straße 3,49.0802,9.46103
http://www.wikidata.org/entity/Q1457173,Theodor-Storm-Haus,54.4757,9.04766
http://www.wikidata.org/entity/Q1389050,Pfahlheimer Bauernstube,48.9646,10.2585
http://www.wikidata.org/entity/Q1472937,Fuggereimuseum,48.3686223,10.9044921
http://www.wikidata.org/entity/Q1447855,Fürstliche Schatzkammer Thurn und Taxis,49.015514,12.091955
http://www.wikidata.org/entity/Q1483652,château de Detmold,51.9362,8.87803
http://www.wikidata.org/entity/Q1388992,Museum für bergmännische Volkskunst,50.5942,12.6418
http://www.wikidata.org/entity/Q1428566,Fliegermuseum Bad Wörishofen,48.0112,10.6022
http://www.wikidata.org/entity/Q1402333,Feldbahnmuseum Oekoven,51.0621,6.65125
http://www.wikidata.org/entity/Q1377395,Schillerhaus,51.3588,12.3628
http://www.wikidata.org/entity/Q1459154,Rheinhessisches Fahrradmuseum,49.9545,8.01671
http://www.wikidata.org/entity/Q1481064,Historisches Kaufhaus,53.485,8.43694
http://www.wikidata.org/entity/Q1457881,Friedrich-Wilhelm-Weber-Museum,51.7494,9.05361
http://www.wikidata.org/entity/Q1466755,Niedersächsisches Spargelmuseum,52.6376,9.20913
http://www.wikidata.org/entity/Q1360933,"Naturhistorisches Museum. Lübeck, Allemagne",53.860277777778,10.685555555556
http://www.wikidata.org/entity/Q1473497,Palais de la ville de Fulda,50.5539,9.67556
http://www.wikidata.org/entity/Q1384152,Hammerschmiede Gnuse,52.137,8.85898
http://www.wikidata.org/entity/Q1409667,Feuerschiff Borkumriff,53.71666667,6.38333333
http://www.wikidata.org/entity/Q1454521,Freilichtmuseum Glentleiten,47.6656,11.2864
http://www.wikidata.org/entity/Q1471212,Fränkische Schweiz-Museum,49.7858,11.3607
http://www.wikidata.org/entity/Q1409666,Amrumbank II,53.366111111111,7.2063888888889
http://www.wikidata.org/entity/Q1464783,Friesisches Museum Niebüll-Deezbüll,54.78,8.82231
http://www.wikidata.org/entity/Q1414278,Heine-Haus,53.546258,9.92872
http://www.wikidata.org/entity/Q1481121,Museum Kösching,48.810333,11.501111
http://www.wikidata.org/entity/Q1384480,Wiesentäler Textilmuseum,47.707,7.856
http://www.wikidata.org/entity/Q1365402,Hexenturm,52.2746,11.8616
http://www.wikidata.org/entity/Q1483652,château de Detmold,51.9365,8.87707
http://www.wikidata.org/entity/Q1373796,Eulenspiegel-Museum,53.6308,10.6923
http://www.wikidata.org/entity/Q1435513,Musée en plein air de Schwerin-Mueß,53.6003,11.4786
http://www.wikidata.org/entity/Q1448165,musée Franz Marc,47.650582,11.36523
http://www.wikidata.org/entity/Q1388353,Kulturgeschichtliches Museum Osnabrück,52.2754,8.03858
http://www.wikidata.org/entity/Q1450385,Franziskanermuseum Villingen-Schwenningen,48.0595,8.45682
http://www.wikidata.org/entity/Q1382154,Goethedenkmal,50.6872,10.9141
http://www.wikidata.org/entity/Q1391782,Museum der Stadt Butzbach,50.433,8.67358
http://www.wikidata.org/entity/Q1410938,Fichtelgebirgemuseum,50.0389,12.0033
http://www.wikidata.org/entity/Q1393762,Museum zur Geschichte von Christen und Juden,48.2303,9.8892
http://www.wikidata.org/entity/Q1419951,Fischer- und Webermuseum Steinhude mit Spielzeugmuseum,52.455,9.35255
http://www.wikidata.org/entity/Q1387193,Meerrettich-Museum,49.6574,11.0329
http://www.wikidata.org/entity/Q1411982,Ludwig Galerie Schloss Oberhausen,51.4919,6.86083
http://www.wikidata.org/entity/Q1452889,Museum für Lackkunst,51.9578,7.63125
http://www.wikidata.org/entity/Q1419394,Zisterzienserinnenkloster Mariensee (Neustadt am Rübenberge),52.5586,9.48667
http://www.wikidata.org/entity/Q1437462,Luise,54.3345,13.7362
http://www.wikidata.org/entity/Q1443527,Heimatmuseum Münstermaifeld,50.247,7.3624
http://www.wikidata.org/entity/Q1434988,Focke-Windkanal,53.0806,8.816
http://www.wikidata.org/entity/Q1454485,Freilicht- und Erlebnismuseum Ostfalen,52.137145,10.649317
http://www.wikidata.org/entity/Q1362265,Erstes Deutsches Fliesenmuseum Boizenburg,53.3739,10.7218
http://www.wikidata.org/entity/Q1434990,Focke-Museum,53.0925,8.86417
http://www.wikidata.org/entity/Q1391590,Fachwerkmuseum (Quedlinburg),51.7883,11.1405
http://www.wikidata.org/entity/Q1399618,Geiseltalmuseum,51.4844,11.9654
http://www.wikidata.org/entity/Q1362762,musée Erwin Hymer,47.937316,9.760461
http://www.wikidata.org/entity/Q1433963,Flugplatzmuseum Cottbus,51.765503,14.295296
http://www.wikidata.org/entity/Q1409667,Feuerschiff Borkumriff,53.5622,6.7474
http://www.wikidata.org/entity/Q1473013,Fuhlrott-Museum,51.2553,7.13889
http://www.wikidata.org/entity/Q1454518,Römermuseum Güglingen,49.0617,9.00472
http://www.wikidata.org/entity/Q1471189,Fränkische Galerie,50.2444,11.3276
http://www.wikidata.org/entity/Q1457383,Heimatmuseum Moringen,51.698,9.8701
http://www.wikidata.org/entity/Q1465416,Fritz-Reuter-Literaturmuseum,53.6953,12.9088
http://www.wikidata.org/entity/Q1372459,Atomkeller-Museum,48.3668,8.80404
http://www.wikidata.org/entity/Q1436503,Martin Luthers Geburtshaus,51.52694,11.55007
http://www.wikidata.org/entity/Q1430299,MehlWelten Museum,53.5144,11.0723
http://www.wikidata.org/entity/Q1392855,Fahrzeugmuseum Marxzell,48.8608,8.44787
http://www.wikidata.org/entity/Q1454516,Freilichtmuseum Beuren,48.5758,9.41417
http://www.wikidata.org/entity/Q1483635,Fürstliche Hofreitschule Bückeburg,52.259846,9.046372
http://www.wikidata.org/entity/Q1480930,Gustav-Schwab-Museum,48.4529,9.09582
http://www.wikidata.org/entity/Q1412464,Rieskrater-Museum,48.854,10.4869
http://www.wikidata.org/entity/Q1471331,musée de la ville de Bautzen,51.1802,14.4271
http://www.wikidata.org/entity/Q1439432,Fossilien- und Heimatmuseum Messel,49.9393,8.74128
http://www.wikidata.org/entity/Q1408905,Museum Bayerisches Vogtland,50.324,11.918472
http://www.wikidata.org/entity/Q1473476,musée du four et de la céramique à Velten,52.6893,13.1715
http://www.wikidata.org/entity/Q1454515,Musée en plein air de Diesdorf,52.7455,10.8851
http://www.wikidata.org/entity/Q1467075,Fürstenbaumuseum,49.7894969,9.9212765
http://www.wikidata.org/entity/Q1431976,Hoffmann-von-Fallersleben-Museum,52.4172,10.7164
http://www.wikidata.org/entity/Q1401968,Feinmechanisches Museum Fellenbergmühle,49.4455,6.64334
http://www.wikidata.org/entity/Q1378648,Ostfriesisches Landesmuseum Emden,53.3668,7.20692
http://www.wikidata.org/entity/Q1425545,bibliothèque Jean de Lasco,53.3653,7.20236
http://www.wikidata.org/entity/Q1456757,synagogue de Kippenheim,48.2936,7.82515
http://www.wikidata.org/entity/Q1467550,Museumszentrum Burg Linn,51.3331,6.63472
http://www.wikidata.org/entity/Q1454522,Freilichtmuseum Neuhausen ob Eck,47.98006,8.92872
http://www.wikidata.org/entity/Q1458988,Goldmuseum Theuern,50.4267,11.0391
http://www.wikidata.org/entity/Q1363869,musée diocésain de Paderborn,51.7185,8.75514
http://www.wikidata.org/entity/Q1394061,Friedrich-Ludwig-Jahn-Museum,51.2096,11.7717
http://www.wikidata.org/entity/Q1483277,Fürstenhaus Herrenhausen-Museum,52.3921,9.69267
http://www.wikidata.org/entity/Q1471252,Fränkisches Brauereimuseum,49.8933,10.8758
http://www.wikidata.org/entity/Q1392980,Schatzkammer Kemnade,51.407777777778,7.2494444444444
http://www.wikidata.org/entity/Q1454535,Freilichtmuseum auf der Insel,53.5989,9.47111
http://www.wikidata.org/entity/Q1470221,Museumsquartier Tirschenreuth,49.8791,12.3381
http://www.wikidata.org/entity/Q1420035,Windstärke 10 – Wrack- und Fischereimuseum Cuxhaven,53.8623,8.70667
http://www.wikidata.org/entity/Q1386666,Goethehaus Volpertshausen,50.5033,8.54581
http://www.wikidata.org/entity/Q1465938,musée des Nibelungen de Worms,49.6294,8.36703
http://www.wikidata.org/entity/Q1457761,Friedrich-Fröbel-Museum,50.6847,11.2634
http://www.wikidata.org/entity/Q1438203,Forst- und Jagdmuseum Ferdinand von Raesfeld,54.3862,12.532
http://www.wikidata.org/entity/Q1431092,Kraftwerk Hirschfelde,50.937456,14.891122
http://www.wikidata.org/entity/Q1384526,Explora,50.1278,8.689525
http://www.wikidata.org/entity/Q1362258,Erstes Deutsches Bananenmuseum,54.0676,10.769
http://www.wikidata.org/entity/Q1386963,maison de naissance de Georg Friedrich Haendel,51.4842,11.9669
http://www.wikidata.org/entity/Q1412221,Museum Römervilla,47.5541,7.6623
http://www.wikidata.org/entity/Q830476,Ostpreußisches Landesmuseum,53.24619444,10.40744444
http://www.wikidata.org/entity/Q811526,Baumberger Sandsteinmuseum,51.9793,7.40722
http://www.wikidata.org/entity/Q812397,Bayerisches Brauerei- und Bäckereimuseum,50.114671,11.468327
http://www.wikidata.org/entity/Q830709,Besucherbergwerk Abraumförderbrücke F60,51.586576,13.777219
http://www.wikidata.org/entity/Q819357,Bergarbeiter-Wohnmuseum,51.596080555556,7.4476388888889
http://www.wikidata.org/entity/Q812435,Bayerisches Polizeimuseum,48.7623907,11.4351571
http://www.wikidata.org/entity/Q811871,Bauspar-Museum,49.0802,9.46103
http://www.wikidata.org/entity/Q636833,Archäologisches Hegau-Museum,47.7625,8.83388889
http://www.wikidata.org/entity/Q819431,Bergbaumuseum des Kreises Altenkirchen,50.7701,7.91692
http://www.wikidata.org/entity/Q831613,Betonzeitschiene,51.0533,13.7689
http://www.wikidata.org/entity/Q751022,château de Demerthin,52.9715,12.2897
http://www.wikidata.org/entity/Q811381,musée Bauhaus,50.985,11.32416667
http://www.wikidata.org/entity/Q636787,Archäologischer Park Cambodunum,47.7276,10.323
http://www.wikidata.org/entity/Q703947,ArsTecnica,50.3529,6.3845
http://www.wikidata.org/entity/Q809765,Basaltpark (Bad Marienberg),50.64583333,7.93777778
http://www.wikidata.org/entity/Q704933,maison des cultures du monde (Berlin),52.5188,13.3648
http://www.wikidata.org/entity/Q826149,Schloss Schwarzenberg,50.5373,12.7874
http://www.wikidata.org/entity/Q697766,abbaye d'Eberbach,50.0425,8.0466666666667
http://www.wikidata.org/entity/Q811292,Bauernmuseum Richen,49.1708,8.94003
http://www.wikidata.org/entity/Q806381,Bandwebermuseum,51.265512,7.138151
http://www.wikidata.org/entity/Q811651,Baumwollspinnerei Ermen & Engels,50.9835,7.40986
http://www.wikidata.org/entity/Q819858,"Bergisches Museum für Bergbau, Handwerk und Gewerbe",50.9649,7.16458
http://www.wikidata.org/entity/Q811257,Bauernhaus-Museum Wolfegg,47.820953,9.788614
http://www.wikidata.org/entity/Q638502,Römermuseum Weißenburg,49.031576240517,10.970430040416
http://www.wikidata.org/entity/Q829299,château de Glücksburg,54.831666666667,9.5436111111111
http://www.wikidata.org/entity/Q641907,Sépulture de Hochdorf,48.889166666667,9.0033333333333
http://www.wikidata.org/entity/Q799878,Bagger 1452,51.06758889,14.9579
http://www.wikidata.org/entity/Q707955,musée romain-germanique,50.940542,6.958931
http://www.wikidata.org/entity/Q798883,Musée thermal de Bad Elster,50.2833,12.2394
http://www.wikidata.org/entity/Q746991,Magnetmuseum,51.4877,7.55452
http://www.wikidata.org/entity/Q623210,Aquazoo – Löbbecke Museum,51.2564,6.74972
http://www.wikidata.org/entity/Q598975,Uniseum,47.995345,7.84863
http://www.wikidata.org/entity/Q811291,Bauernmuseum Wiehl,50.9572,7.58125
http://www.wikidata.org/entity/Q821308,Berlin-Museum,52.5014,13.3956
http://www.wikidata.org/entity/Q805947,Bamberger Krippenmuseum,49.8923,10.883
http://www.wikidata.org/entity/Q620535,Apotheken-Museum Bad Münstereifel,50.5547,6.76427
http://www.wikidata.org/entity/Q800306,Bahnbetriebswerk Hermeskeil,49.6572,6.93125
http://www.wikidata.org/entity/Q638393,Reichsstadtmuseum Weißenburg,49.03155,10.97061
http://www.wikidata.org/entity/Q685524,Miniatur-Wunderland,53.5438464,9.9889992
http://www.wikidata.org/entity/Q707407,Grünes Gewölbe,51.0528,13.7364
http://www.wikidata.org/entity/Q636821,Archäologisches Freilichtmuseum Funkenburg,51.2389,10.9181
http://www.wikidata.org/entity/Q683457,U-2540,53.541388888889,8.5777777777778
http://www.wikidata.org/entity/Q803741,Baierwein-Museum,49.020909,12.294691
http://www.wikidata.org/entity/Q702551,château de Schwetzingen,49.383526939333,8.5659259584118
http://www.wikidata.org/entity/Q813225,Beatlemania Hamburg,53.55005556,9.95686111
http://www.wikidata.org/entity/Q831411,"Städtische Galerie. Karlsruhe, Allemagne",49.0002,8.3837
http://www.wikidata.org/entity/Q811266,Bauernhausmuseum Lindberg,49.0355,13.2522
http://www.wikidata.org/entity/Q623176,Aquarius-Wassermuseum,51.443138888889,6.8564166666667
http://www.wikidata.org/entity/Q686109,Wahnfried,49.940945102726,11.582061647959
http://www.wikidata.org/entity/Q630433,Arboretum Lohbrügge,53.50388889,10.19916667
http://www.wikidata.org/entity/Q798175,maison de naissance de Jean-Sébastien Bach,50.971491666667,10.322611111111
http://www.wikidata.org/entity/Q806381,Bandwebermuseum,51.2295,7.14009
http://www.wikidata.org/entity/Q813227,Beatles-Museum Halle,51.4802,11.9683
http://www.wikidata.org/entity/Q800295,Bahnbetriebswerk Gelsenkirchen-Bismarck,51.5402,7.11927
http://www.wikidata.org/entity/Q799168,Badisches Landesmuseum,49.0136,8.40444
http://www.wikidata.org/entity/Q688335,musée historique allemand,52.5178,13.3969
http://www.wikidata.org/entity/Q674670,villa Hügel,51.4069,7.0083
http://www.wikidata.org/entity/Q636568,Parc archéologique de Belginum,49.8554,7.16454
http://www.wikidata.org/entity/Q790845,Aviatisches Museum,52.4403,13.5056
http://www.wikidata.org/entity/Q830709,Besucherbergwerk Abraumförderbrücke F60,51.5861,13.7772
http://www.wikidata.org/entity/Q830723,Besucherbergwerk Schmittenstollen,49.7905,7.78171
http://www.wikidata.org/entity/Q780621,Ausstellungszentrum für die Archäologie des Emslandes,52.6879,7.30486
http://www.wikidata.org/entity/Q705848,château de Johannisburg,49.9761,9.14167
http://www.wikidata.org/entity/Q830675,Langen Foundation,51.152383333333,6.6446111111111
http://www.wikidata.org/entity/Q819398,Bergbau- und Industriemuseum Ostbayern,49.3865,11.9107
http://www.wikidata.org/entity/Q638130,thermes romains de Weissenburg in Bayern,49.0307,10.9582
http://www.wikidata.org/entity/Q827832,Berthold-Auerbach-Museum,48.4371,8.70363
http://www.wikidata.org/entity/Q829296,musée de la Sarre,49.2308,6.99992
http://www.wikidata.org/entity/Q636513,Archäologie-Museum im Fränkischen Freilandmuseum Bad Windsheim,49.4972,10.4222
http://www.wikidata.org/entity/Q694490,musée de Parfum,50.93774,6.95792
http://www.wikidata.org/entity/Q811381,musée Bauhaus,50.98,11.326111
http://www.wikidata.org/entity/Q599015,Stift Fischbeck,52.1419,9.29722
http://www.wikidata.org/entity/Q700216,Musées d'État de Berlin,52.455172015138,13.292128099556
http://www.wikidata.org/entity/Q636865,Archäologisches Landesmuseum Brandenburg im Paulikloster,52.4061,12.5631
http://www.wikidata.org/entity/Q641907,Sépulture de Hochdorf,48.888611,9.009722
http://www.wikidata.org/entity/Q756700,Atlantis Kindermuseum,51.4403,6.77028
http://www.wikidata.org/entity/Q821594,Nietzsche-Haus,51.15,11.8126
http://www.wikidata.org/entity/Q702661,Autostadt,52.4311,10.7919
http://www.wikidata.org/entity/Q821828,Berliner Turm,52.2735,11.8645
http://www.wikidata.org/entity/Q627507,Arbeitsgemeinschaft Geesthachter Eisenbahn,53.43388889,10.365
http://www.wikidata.org/entity/Q620550,Apothekenmuseum Weißenburg,49.0313,10.9714
http://www.wikidata.org/entity/Q637250,Archäologisches Zentrum Hitzacker,53.1469,11.0472
http://www.wikidata.org/entity/Q811267,Bauernhausmuseum der Stadt Bochum,51.408333333333,7.2507777777778
http://www.wikidata.org/entity/Q828334,Lipsiusbau,51.0528,13.7433
http://www.wikidata.org/entity/Q642097,château de Darmstadt,49.8736,8.65528
http://www.wikidata.org/entity/Q804216,Bajuwarenmuseum,47.9338518,12.736871
http://www.wikidata.org/entity/Q789964,Außenstelle des Museums Bochum auf Haus Kemnade,51.407777777778,7.2494444444444
http://www.wikidata.org/entity/Q613228,Friesenmuseum,54.6872,8.56194
http://www.wikidata.org/entity/Q705611,Art Kite Museum,51.9439,8.89833
http://www.wikidata.org/entity/Q636568,Parc archéologique de Belginum,49.867101,7.164257
http://www.wikidata.org/entity/Q735434,musée Couven,50.7757,6.08487
http://www.wikidata.org/entity/Q804288,Bakelit-Museum Kierspe,51.1383,7.5864
http://www.wikidata.org/entity/Q811293,Musée de la ferme de Schlepzig,52.0272,13.8991
http://www.wikidata.org/entity/Q748371,Skulpturenpark Sammlung Domnick Nürtingen,48.6246,9.34241
http://www.wikidata.org/entity/Q684896,Sammlung Falckenberg,53.45522,9.98743
http://www.wikidata.org/entity/Q620547,Apothekenmuseum Schiltach,48.2899,8.3434
http://www.wikidata.org/entity/Q760547,Augsburger Kanumuseum,48.346389,10.935833
http://www.wikidata.org/entity/Q811526,Baumberger Sandsteinmuseum,51.979364,7.407165
http://www.wikidata.org/entity/Q819429,Bergbaumuseum Siciliaschacht,51.1285,8.06282
http://www.wikidata.org/entity/Q756487,Atlanticum,53.5219,8.58717
http://www.wikidata.org/entity/Q1526549,Gipsformerei,52.5192,13.2867
http://www.wikidata.org/entity/Q1550167,Deutsches Gruben- und Feldbahnmuseum,51.428611111111,7.3244444444444
http://www.wikidata.org/entity/Q1526400,Phyllodrom,51.39174,12.37734
http://www.wikidata.org/entity/Q1548656,Prignitz-Museum,52.8267,12.0778
http://www.wikidata.org/entity/Q1535025,Rheinisches Fastnachtsmuseum Koblenz,50.3509,7.58736
http://www.wikidata.org/entity/Q1551866,Gründerzeitmuseum im Gutshaus Mahlsdorf,52.5024,13.6139
http://www.wikidata.org/entity/Q1537067,Gondwana – Das Praehistorium,49.36666667,7.11666667
http://www.wikidata.org/entity/Q1534815,Golden-Ross-Kaserne,50.00385,8.26778
http://www.wikidata.org/entity/Q1549970,Grube Glasebach,51.6125,11.0608
http://www.wikidata.org/entity/Q1495184,Gaslaternen-Freilichtmuseum Berlin,52.51268333,13.33705278
http://www.wikidata.org/entity/Q1534191,Goethemuseum (Stützerbach),50.6358,10.8678
http://www.wikidata.org/entity/Q1494978,Maarmuseum,50.0906,6.80722
http://www.wikidata.org/entity/Q1499511,musée de la monnaie de la Deutsche Bundesbank,50.1358,8.6619
http://www.wikidata.org/entity/Q1543522,musée Grassi,51.3374,12.3883
http://www.wikidata.org/entity/Q1558875,Gäubodenmuseum,48.883334288515,12.570373429884
http://www.wikidata.org/entity/Q1543579,ehem. Lichtdruck-Werkstatt-Museum,51.035,13.8008
http://www.wikidata.org/entity/Q1534213,Goethes Gartenhaus,50.9761,11.3369
http://www.wikidata.org/entity/Q1503225,Geologisch-Paläontologisches Museum Hamburg,53.56805556,9.97444444
http://www.wikidata.org/entity/Q1549317,Grossherzoglich-Hessische Porzellansammlung,49.8796,8.65347
http://www.wikidata.org/entity/Q1529703,Glasmuseum Spiegelberg,49.0378,9.44654
http://www.wikidata.org/entity/Q1503409,Musée Georg Kolbe,52.50991,13.25478
http://www.wikidata.org/entity/Q1514593,Museum am Markt,48.2904,8.34318
http://www.wikidata.org/entity/Q1508725,Hessisches Landesmuseum,51.3108,9.48972
http://www.wikidata.org/entity/Q1502577,Genscher-Haus,51.4754,12.0453
http://www.wikidata.org/entity/Q1535100,Schloss Reinbek,53.5073,10.2539
http://www.wikidata.org/entity/Q1529697,Glasmuseum Frauenau,48.9881114,13.2983821
http://www.wikidata.org/entity/Q1502400,musée du Land de Coblence,50.3641,7.61436
http://www.wikidata.org/entity/Q1529396,Glaselefant,51.6829,7.88174
http://www.wikidata.org/entity/Q1566931,Museum für Angewandte Kunst,50.87560833,12.08641944
http://www.wikidata.org/entity/Q1494393,Garnisonmuseum Ludwigsburg,48.8975,9.18304
http://www.wikidata.org/entity/Q1518746,Museum Riegel,48.1508,7.75113
http://www.wikidata.org/entity/Q1520447,musée du commerce de Nuremberg,49.451458826951,11.083333306989
http://www.wikidata.org/entity/Q1497547,Gedenkstätte Stille Helden,52.5245,13.4017
http://www.wikidata.org/entity/Q1509363,musée des techniques Hugo-Junkers,51.8364,12.2089
http://www.wikidata.org/entity/Q1527926,Weimarhaus,50.9793,11.3269
http://www.wikidata.org/entity/Q1495745,Museum für Neue Kunst Karlsruhe,49.0014,8.38361
http://www.wikidata.org/entity/Q1536845,Museum Soltau,52.9869,9.83753
http://www.wikidata.org/entity/Q1517435,Museum für Ur- und Frühgeschichte auf der Willibaldsburg,48.894427,11.16959
http://www.wikidata.org/entity/Q1550590,musée celto-romain de Manching,48.713,11.4933
http://www.wikidata.org/entity/Q1503408,Georg-Lechner-Biermuseum,51.8107,8.13158
http://www.wikidata.org/entity/Q1545709,Grenz-Dokumentationsstätte Lübeck-Schlutup,53.8842,10.8053
http://www.wikidata.org/entity/Q1521945,Skimuseum Augsburg,48.3638,10.9268
http://www.wikidata.org/entity/Q1512911,Gerhart-Hauptmann-Haus,51.221,6.78929
http://www.wikidata.org/entity/Q1543384,Porzellanmuseum Münster,51.9729,7.60944
http://www.wikidata.org/entity/Q1503229,Geologisch-Paläontologisches Museum Münster,51.9615,7.62314
http://www.wikidata.org/entity/Q1505516,Hohenzollerisches Landesmuseum,48.3535,8.96419
http://www.wikidata.org/entity/Q1529702,Glasmuseum Waldkraiburg,48.208130555556,12.406236111111
http://www.wikidata.org/entity/Q1552844,Kleinbauernmuseum Reitzendorf,51.0267,13.9036
http://www.wikidata.org/entity/Q1503409,Musée Georg Kolbe,52.51028,13.25417
http://www.wikidata.org/entity/Q1551805,Grünauer Wassersportmuseum,52.4119,13.5875
http://www.wikidata.org/entity/Q1543996,Harrys Hamburger Hafenbasar,53.547652,9.959831
http://www.wikidata.org/entity/Q1497759,GeesthachtMuseum!,53.433,10.3714
http://www.wikidata.org/entity/Q1551641,Grönegaumuseum,52.2058,8.32861
http://www.wikidata.org/entity/Q1503250,Geologisches Museum München,48.1472,11.5647
http://www.wikidata.org/entity/Q1528467,Muschelkalkmuseum Hagdorn,49.301,9.65028
http://www.wikidata.org/entity/Q1525564,Caricatura Museum für Komische Kunst,50.1102,8.68511
http://www.wikidata.org/entity/Q1564668,Sparkassen-Museum,50.9798,10.3245
http://www.wikidata.org/entity/Q1555947,"Museum für Uhren, Schmuck und Kunst Frankfurt am Main",50.1022,8.54762
http://www.wikidata.org/entity/Q1534447,Inn-Museum,47.855,12.141
http://www.wikidata.org/entity/Q1503802,Georg Breusing,53.3664,7.20626
http://www.wikidata.org/entity/Q1516470,Museum im Schlossturm,52.6036,8.37229
http://www.wikidata.org/entity/Q1552368,Silberwäsche,50.5048,12.7561
http://www.wikidata.org/entity/Q1557049,Gut Steinhof,52.3169,10.4456
http://www.wikidata.org/entity/Q1529695,Glasmuseum Bad Driburg,51.7366,9.01921
http://www.wikidata.org/entity/Q1497544,Gedenkstätte Münchner Platz Dresden,51.0292,13.7225
http://www.wikidata.org/entity/Q1529704,Glasmuseum Wertheim,49.7582,9.51775
http://www.wikidata.org/entity/Q1541549,Grafik Museum Stiftung Schreiner,50.36536,11.635613
http://www.wikidata.org/entity/Q1519254,Melanchthonhaus,49.0368,8.7069
http://www.wikidata.org/entity/Q1545812,Musée en plein air près de Sorge dans les montagnes du Harz,51.6949,10.6859
http://www.wikidata.org/entity/Q1515980,Gerätemuseum des Coburger Landes,50.2317,10.9489
http://www.wikidata.org/entity/Q1485888,Historisches Zentrum der Stadt Remscheid,51.1972,7.16575
http://www.wikidata.org/entity/Q1541857,Grafschaftsmuseum Wertheim und Otto-Modersohn-Kabinett,49.7596,9.51811
http://www.wikidata.org/entity/Q1541361,Graf-Eberstein-Schloss,49.1036,8.74635
http://www.wikidata.org/entity/Q1560511,maison Günter-Grass,53.8694,10.69
http://www.wikidata.org/entity/Q1534136,Goethe-Nationalmuseum,50.9776,11.3287
http://www.wikidata.org/entity/Q1552095,Mühlenmuseum Moisburg,53.4051,9.69492
http://www.wikidata.org/entity/Q1531619,Otto-Pankok-Museum,51.71,6.69972
http://www.wikidata.org/entity/Q1514834,Stormarnsches Dorfmuseum,53.6556,10.333
http://www.wikidata.org/entity/Q1517744,Geschichtsmuseum der Stadt Lüdenscheid,51.2138,7.6316
http://www.wikidata.org/entity/Q1531837,Glocken- und Stadtmuseum (Apolda),51.0269,11.5192
http://www.wikidata.org/entity/Q1516413,Heimatmuseum Hüsli,47.79407229,8.24779272
http://www.wikidata.org/entity/Q1498000,Traktor-Museum am Bahnhof,50.22,11.935
http://www.wikidata.org/entity/Q1525458,Jagdhaus Gabelbach,50.6586,10.8842
http://www.wikidata.org/entity/Q1539491,Historisches Museum Bamberg,49.8909,10.8824
http://www.wikidata.org/entity/Q1529609,Glashüttenmuseum des Erzgebirges,50.6775,13.4622
http://www.wikidata.org/entity/Q1532094,KZ-Gedenkstätte Dachau,48.2703,11.4681
http://www.wikidata.org/entity/Q1495723,Gaswerk Neustadt (Dosse),52.8625,12.4203
http://www.wikidata.org/entity/Q1497540,Gedenkstätte Museum in der „Runden Ecke“,51.34152,12.37
http://www.wikidata.org/entity/Q1530823,Museum im Stern,51.4877,9.14779
http://www.wikidata.org/entity/Q1524874,TRUDE,53.58483333,10.04433333
http://www.wikidata.org/entity/Q1566920,Warleberger Hof,54.3244,10.141
http://www.wikidata.org/entity/Q1525046,Ginkgo-Museum,50.9792,11.3292
http://www.wikidata.org/entity/Q1558839,Gärtner- und Häckermuseum,49.8994,10.8927
http://www.wikidata.org/entity/Q1559234,Göhre,50.9285,11.5883
http://www.wikidata.org/entity/Q1512708,Siku Museum,51.9853,6.89107
http://www.wikidata.org/entity/Q1547444,Industriesalon Schöneweide,52.4602,13.5192
http://www.wikidata.org/entity/Q1503291,Geomuseum Münster,51.9614,7.62364
http://www.wikidata.org/entity/Q1497652,Oberfränkisches Feuerwehrmuseum,50.279741,11.740662
http://www.wikidata.org/entity/Q1541344,Graevenitz-Museum,48.7858,9.08694
http://www.wikidata.org/entity/Q1494361,Kunstmuseum Albstadt,48.2123,9.02512
http://www.wikidata.org/entity/Q2147843,Rheinisches Schützenmuseum Neuss,51.1952,6.69689
http://www.wikidata.org/entity/Q2244612,Schlossmuseum Jever,53.5722,7.90306
http://www.wikidata.org/entity/Q2130301,Ramones-Museum Berlin,52.50117,13.44311
http://www.wikidata.org/entity/Q2239531,Schleusenpark Waltrop,51.6186,7.33007
http://www.wikidata.org/entity/Q2035602,Osthofentor,51.5736,8.11583
http://www.wikidata.org/entity/Q2010931,Oberschwäbisches Museumsdorf Kürnbach,47.9923,9.67633
http://www.wikidata.org/entity/Q2035527,Ostfriesisches Teemuseum,53.5947,7.20242
http://www.wikidata.org/entity/Q2147828,Rheinisches Eisenkunstguss-Museum,50.4384,7.57722
http://www.wikidata.org/entity/Q2042287,Overbeck-Museum,53.1689,8.62373
http://www.wikidata.org/entity/Q2179565,Römerhalle (Bad Kreuznach),49.8457,7.84679
http://www.wikidata.org/entity/Q2050734,Papiermühle Plöger,51.9103,9.14461
http://www.wikidata.org/entity/Q2179612,Römermuseum Obernburg,49.840152,9.14828
http://www.wikidata.org/entity/Q2168818,Rotkreuz-Museum Berlin,52.4743,13.3267
http://www.wikidata.org/entity/Q2051363,Paradiesmühle,51.8766,9.28196
http://www.wikidata.org/entity/Q2235783,Schillers Gartenhaus,50.9258,11.5833
http://www.wikidata.org/entity/Q2216180,Salzmuseum,51.269,9.96523
http://www.wikidata.org/entity/Q2212199,Saigerhütte Grünthal,50.6496,13.3683
http://www.wikidata.org/entity/Q2046957,Palais Dürckheim,48.1458,11.5733
http://www.wikidata.org/entity/Q2222068,Sankt-Pauli-Museum,53.54841667,9.96241667
http://www.wikidata.org/entity/Q2239098,Schlepper- und Geräte-Museum Altenberge,52.0172,7.44333
http://www.wikidata.org/entity/Q2240519,château de Caputh,52.3491,13.0007
http://www.wikidata.org/entity/Q2179613,Römermuseum Grabenstätt,47.843138888889,12.543916666667
http://www.wikidata.org/entity/Q2148924,Richard-Wagner-Stätten Graupa,51.00005,13.92046
http://www.wikidata.org/entity/Q2179608,Römermuseum Kastell Boiotro,48.5698,13.4624
http://www.wikidata.org/entity/Q2234922,Schiffahrtsmuseum der oldenburgischen Unterweser,53.3264,8.48451
http://www.wikidata.org/entity/Q2050718,Papiermuseum Düren,50.8008,6.47944
http://www.wikidata.org/entity/Q2244615,Schlossmuseum Pillnitz,51.0083,13.8711
http://www.wikidata.org/entity/Q2179619,Römermuseum in der Schule Rißtissen,48.269,9.8333
http://www.wikidata.org/entity/Q2010607,Freilandmuseum Oberpfalz,49.4658,12.2201
http://www.wikidata.org/entity/Q2217216,Samlandmuseum,53.6595,9.80313
http://www.wikidata.org/entity/Q2220539,Sandelsches Museum,49.2049,9.98172
http://www.wikidata.org/entity/Q2050608,Papenburger Zeitspeicher,53.0869,7.38388
http://www.wikidata.org/entity/Q2179505,RömerWelt,50.5111,7.32671
http://www.wikidata.org/entity/Q2009806,Oberhausmuseum,48.5775,13.4709
http://www.wikidata.org/entity/Q2168498,Rotes Haus,50.5547,6.24085
http://www.wikidata.org/entity/Q2052725,Parkhöhle,50.975,11.3311
http://www.wikidata.org/entity/Q2215893,mine de sel Berchtesgaden,47.638119733115,13.017754043395
http://www.wikidata.org/entity/Q2240269,Château de Bernburg,51.7939,11.7344
http://www.wikidata.org/entity/Q2167344,Rosgartenmuseum,47.6599,9.17479
http://www.wikidata.org/entity/Q2109125,LWL-Preußenmuseum Minden,52.2836,8.90861
http://www.wikidata.org/entity/Q2179623,Römermuseum Schwarzenacker,49.2828,7.31663
http://www.wikidata.org/entity/Q2235030,Schifffahrtsmuseum (Düsseldorf),51.2275,6.77111
http://www.wikidata.org/entity/Q2010605,Oberpfälzer Fischereimuseum,49.8792,12.3387
http://www.wikidata.org/entity/Q2101739,Polizeihistorische Sammlung Berlin,52.483,13.387
http://www.wikidata.org/entity/Q2168820,Rotkreuz-Museum vogelsang ip,50.5875,6.44806
http://www.wikidata.org/entity/Q2234480,Schieferpark Lehesten,50.4631,11.4384
http://www.wikidata.org/entity/Q2160723,Rockmuseum Munich,48.1744,11.5536
http://www.wikidata.org/entity/Q2156263,Robert-Schumann-Haus Zwickau,50.7176,12.4965
http://www.wikidata.org/entity/Q2239236,Schlesisches Museum zu Görlitz,51.15611314,14.99059796
http://www.wikidata.org/entity/Q2168825,Rotkreuzgeschichtliche Sammlung in Westfalen-Lippe,51.809972222222,8.8393611111111
http://www.wikidata.org/entity/Q2147872,Rheinland-Pfälzisches Feuerwehrmuseum Hermeskeil,49.65552,6.94337
http://www.wikidata.org/entity/Q2006386,Nähmaschinenmuseum Sommerfeld,52.8011,13.0326
http://www.wikidata.org/entity/Q2168814,Rotkreuz-Museum Nürnberg,49.4573976,11.0955363
http://www.wikidata.org/entity/Q2103446,Pompejanum,49.9775,9.13639
http://www.wikidata.org/entity/Q2202633,Römisches Museum mit Archäologischem Park Köngen,48.6772,9.36028
http://www.wikidata.org/entity/Q2009784,Oberharzer Bergwerksmuseum,51.8171,10.3359
http://www.wikidata.org/entity/Q2105542,musée de la Porcelaine de Munich,48.1558,11.5056
http://www.wikidata.org/entity/Q2235725,Schillerhaus (Oberkochen),48.7851,10.107
http://www.wikidata.org/entity/Q2202439,Römische Kalkbrennerei Iversheim,50.5881,6.77399
http://www.wikidata.org/entity/Q2238882,Schleifmühle Schwerin,53.6177,11.4191
http://www.wikidata.org/entity/Q2133582,musée de Rautenstrauch-Joest,50.922355555556,6.9647027777778
http://www.wikidata.org/entity/Q2068415,Pelzerhäuser,53.3648,7.20451
http://www.wikidata.org/entity/Q2241369,Château Güstrow,53.79084,12.17706
http://www.wikidata.org/entity/Q2244607,Schlossmuseum Aschaffenburg,49.9761,9.14167
http://www.wikidata.org/entity/Q2202627,Römisches Museum Augsburg,48.3652,10.901
http://www.wikidata.org/entity/Q2009653,Oberfränkisches Bauernhofmuseum Kleinlosnitz,50.1558,11.7903
http://www.wikidata.org/entity/Q2138989,Rehmuseum,47.633269,13.003061
http://www.wikidata.org/entity/Q2015389,Ofenbauermuseum,50.557014,7.955594
http://www.wikidata.org/entity/Q2243636,Schloss Strünkede,51.5514,7.21111
http://www.wikidata.org/entity/Q2240858,Schloss Engers,50.4225,7.54361
http://www.wikidata.org/entity/Q2148924,Richard-Wagner-Stätten Graupa,50.999277465649,13.92207929687
http://www.wikidata.org/entity/Q2217432,Sammlung Ur- und Frühgeschichte der Universität Leipzig,51.341307797102,12.379496665845
http://www.wikidata.org/entity/Q2235692,Schiller-Nationalmuseum,48.9356,9.25485
http://www.wikidata.org/entity/Q2142750,Religionskundliche Sammlung,50.80986,8.76892
http://www.wikidata.org/entity/Q2084616,Pfälzisches Steinhauermuseum,49.7225,7.81295
http://www.wikidata.org/entity/Q2240265,Château de Berlebourg,51.051444444444,8.3884722222222
http://www.wikidata.org/entity/Q2083455,Pfefferminzmuseum,48.166458333333,11.319661111111
http://www.wikidata.org/entity/Q2167145,musée Rosenheim,50.1018,8.74744
http://www.wikidata.org/entity/Q2050716,Papiermuseum Alte Dombach,50.9949,7.15361
http://www.wikidata.org/entity/Q2243636,Schloss Strünkede,51.551309,7.211183
http://www.wikidata.org/entity/Q2138427,Musée régional de Neubrandenburg,53.5569,13.255
http://www.wikidata.org/entity/Q2239322,Schleswig-Holsteinisches Freilichtmuseum,54.2752,10.079
http://www.wikidata.org/entity/Q2221305,Sandsteinmuseum Bad Bentheim,52.30317,7.15499
http://www.wikidata.org/entity/Q2139635,Reichspräsident-Friedrich-Ebert-Gedenkstätte,49.4127,8.7082
http://www.wikidata.org/entity/Q2242046,Schloss Langenstein,47.84277778,8.90277778
http://www.wikidata.org/entity/Q2147480,Rhein-Museum Koblenz,50.3607,7.61152
http://www.wikidata.org/entity/Q2174973,Ruhlaer Uhrenmuseum,50.9029,10.3674
http://www.wikidata.org/entity/Q2084472,Pfundsmuseum,50.5507,9.8763
http://www.wikidata.org/entity/Q2235841,Schilling-Museum,51.04971,13.759
http://www.wikidata.org/entity/Q2138414,Regionalmuseum Alsfeld,50.7507,9.27008
http://www.wikidata.org/entity/Q2234918,Schiffahrtsmuseum Nordfriesland,54.4754,9.05106
http://www.wikidata.org/entity/Q2048525,Paläontologisches Museum Nierstein,49.8749,8.33665
http://www.wikidata.org/entity/Q2210810,Sackmuseum,51.8049,9.11039
http://www.wikidata.org/entity/Q2082269,Pfalzmuseum für Naturkunde,49.4614,8.14939
http://www.wikidata.org/entity/Q2242823,Schloss Oettingen,48.9546,10.6046
http://www.wikidata.org/entity/Q2018926,Oldtimermuseum Meßkirch,47.99333333,9.10972222
http://www.wikidata.org/entity/Q2105523,Porzellanikon,50.1695,12.1287
http://www.wikidata.org/entity/Q2109557,Priental-Museum,47.7657,12.3221
http://www.wikidata.org/entity/Q2133582,musée de Rautenstrauch-Joest,50.93464,6.95053
http://www.wikidata.org/entity/Q2010536,Oberneulander Mühle,53.086369,8.936181
http://www.wikidata.org/entity/Q2428768,Thonet-Museum,51.0519,8.78784
http://www.wikidata.org/entity/Q2326319,Stadt- und Industriemuseum Rüsselsheim,49.9994,8.41907
http://www.wikidata.org/entity/Q2536891,WBG-Museum Augsburg,48.367,10.881
http://www.wikidata.org/entity/Q2474193,Uhrensammlung Karl Gebhardt,49.4517,11.0833
http://www.wikidata.org/entity/Q2327646,Stadtmuseum Erfurt,50.97952,11.03483
http://www.wikidata.org/entity/Q2430867,Thüringer Museum für Elektrotechnik Erfurt,50.9884,11.0443
http://www.wikidata.org/entity/Q2555470,Weihnachtshaus Husum,54.4772,9.04394
http://www.wikidata.org/entity/Q2475379,Ulmer Museum,48.397,9.99481
http://www.wikidata.org/entity/Q2412294,The Kennedys (Museum),52.5167,13.3833
http://www.wikidata.org/entity/Q2430787,Thüringer Freilichtmuseum Hohenfelden,50.8891,11.1647
http://www.wikidata.org/entity/Q2327648,Stadtmuseum Fembohaus,49.456549168857,11.077170977427
http://www.wikidata.org/entity/Q2327658,Stadtmuseum Halle,51.4803,11.9714
http://www.wikidata.org/entity/Q2348650,Kollegiatstift/Augustinerchorherrenstift Sindelfingen,48.71097,9.00087
http://www.wikidata.org/entity/Q2538899,Waffenmuseum Suhl,50.6103,10.6894
http://www.wikidata.org/entity/Q2474182,Uhrenmuseum Bad Iburg,52.1583,8.04639
http://www.wikidata.org/entity/Q2339190,Steiff Museum,48.6211,10.2416
http://www.wikidata.org/entity/Q2401440,Telefonmuseum Bochum,51.4888,7.24185
http://www.wikidata.org/entity/Q2553541,Webmuseum Oederan,50.8618,13.1679
http://www.wikidata.org/entity/Q2532065,Volkskunde Museum Schleswig,54.51821072,9.54778433
http://www.wikidata.org/entity/Q2464080,Töpfermuseum Breitscheid,50.6853,8.186
http://www.wikidata.org/entity/Q2460905,Turm der Sinne,49.45221056,11.06951952
http://www.wikidata.org/entity/Q2557563,Wella Museum,49.8647,8.63588
http://www.wikidata.org/entity/Q2494394,Musée Unikatum à Leipzig,51.3314,12.338
http://www.wikidata.org/entity/Q2441502,Tonbergbaumuseum Siershahn,50.4855,7.7655
http://www.wikidata.org/entity/Q2409247,Thaulow-Museum,54.318346538186,10.132621791523
http://www.wikidata.org/entity/Q2327642,Stadtmuseum Brilon,51.3933,8.57389
http://www.wikidata.org/entity/Q2359928,Städtische Galerie Böblingen,48.6849,9.01057
http://www.wikidata.org/entity/Q2430878,Thüringer Orgelmuseum Bechstedtstraß,50.9574,11.1958
http://www.wikidata.org/entity/Q2352068,Storchenturm-Museum,48.3462,8.06319
http://www.wikidata.org/entity/Q2443934,Torf- und Siedlungsmuseum,53.4181,7.72519
http://www.wikidata.org/entity/Q2327662,Stadtmuseum Hofheim am Taunus,50.0871,8.44654
http://www.wikidata.org/entity/Q2327183,Musée de l'histoire de la ville de Leipzig,51.34183,12.37638
http://www.wikidata.org/entity/Q2326348,Musée de la ville et de l'échelle d'Oschatz,51.297,13.106
http://www.wikidata.org/entity/Q2354771,Straßenbahnmuseum Kassel,51.31,9.52083
http://www.wikidata.org/entity/Q2359946,Städtische Galerie Wolfsburg,52.4392,10.7994
http://www.wikidata.org/entity/Q2386256,Tabakmuseum Mahlberg,48.2855,7.80716
http://www.wikidata.org/entity/Q2327176,Stadtgeschichtliches Museum der Hansestadt Wismar,53.8951,11.4665
http://www.wikidata.org/entity/Q2460439,Turbinenmuseum Augsburg,48.3638,10.9268
http://www.wikidata.org/entity/Q2563859,Weserburg Museum für moderne Kunst,53.07667,8.79862
http://www.wikidata.org/entity/Q2500877,Urmensch-Museum,48.9648,9.27931
http://www.wikidata.org/entity/Q2327607,Stadtmauermuseum,48.8544,10.4927
http://www.wikidata.org/entity/Q2327651,Stadtmuseum Fürth,49.473748,10.987161
http://www.wikidata.org/entity/Q2548467,Wannenmacher-Museum,52.1728,7.53074
http://www.wikidata.org/entity/Q2526201,Viller Mühle,51.7022,6.05139
http://www.wikidata.org/entity/Q2381466,Südsauerlandmuseum,51.1259,7.90363
http://www.wikidata.org/entity/Q2345797,Sterneckerbräu,48.1354,11.5807
http://www.wikidata.org/entity/Q2327183,Musée de l'histoire de la ville de Leipzig,51.34072,12.375331
http://www.wikidata.org/entity/Q2459104,Tuchmacher-Museum Bramsche,52.405,7.97802
http://www.wikidata.org/entity/Q2327671,Stadtmuseum Meißen,51.1632,13.4723
http://www.wikidata.org/entity/Q2341562,Steinsburgmuseum,50.39945,10.59108
http://www.wikidata.org/entity/Q2563325,Werratalmuseum Gerstungen,50.968,10.0783
http://www.wikidata.org/entity/Q2533395,Vor- und frühgeschichtliches Museum Thalmässing,49.0879,11.2196
http://www.wikidata.org/entity/Q2338826,Steffenshammer,51.2028,7.1662
http://www.wikidata.org/entity/Q2534575,Vortaunusmuseum,50.20202,8.57653
http://www.wikidata.org/entity/Q2407936,Textilmuseum der Brennet,47.6297,7.9055
http://www.wikidata.org/entity/Q2334538,Stauffenberg-Erinnerungsstätte im Stuttgarter Alten Schloss,48.7772,9.17917
http://www.wikidata.org/entity/Q2360096,Städtisches Museum (Braunschweig),52.2611,10.5317
http://www.wikidata.org/entity/Q2430865,Thüringer Museum (Eisenach),50.97503611,10.31991667
http://www.wikidata.org/entity/Q2521245,Vestisches Museum,51.6093,7.19617
http://www.wikidata.org/entity/Q2386248,Musée du tabac de Lorsch,49.6543,8.5691
http://www.wikidata.org/entity/Q2502251,Urwelt-Museum Hauff,48.6353,9.52833
http://www.wikidata.org/entity/Q2349034,Keramion,50.9102,6.82943
http://www.wikidata.org/entity/Q2368156,Suppenmuseum,50.4806,12.9744
http://www.wikidata.org/entity/Q2530323,Vogtlandmuseum Plauen,50.4938,12.1342
http://www.wikidata.org/entity/Q2560329,Archives du Werkbund - Musée des objets,52.501036,13.420672
http://www.wikidata.org/entity/Q2360106,Ludwigsburg Museum,48.8963,9.1927
http://www.wikidata.org/entity/Q2326313,Stadt- und Hochstiftmuseum,48.5764185,10.4935485
http://www.wikidata.org/entity/Q2555823,Weinbaumuseum Stuttgart,48.7764,9.2792
http://www.wikidata.org/entity/Q2365188,Sumelocenna-Museum,48.4783,8.93625
http://www.wikidata.org/entity/Q2363268,Kindl - Zentrum für zeitgenössische Kunst,52.4794,13.4308
http://www.wikidata.org/entity/Q2327673,Stadtmuseum Mutzschen,51.2606,12.8844
http://www.wikidata.org/entity/Q2327707,Stadtmuseum im Schweizer Hof,49.0373,8.7052
http://www.wikidata.org/entity/Q2459113,Tuchmuseum Lennep,51.1935,7.26044
http://www.wikidata.org/entity/Q2360104,Städtisches Museum Göttingen,51.536,9.93692
http://www.wikidata.org/entity/Q2559714,Wenzel-Hablik-Museum,53.9196,9.51599
http://www.wikidata.org/entity/Q2327170,Stadtgeschichtliches Museum,50.921,6.35599
http://www.wikidata.org/entity/Q2525907,Villa Wessel,51.3783,7.69972
http://www.wikidata.org/entity/Q2432273,Arche Warder,54.21527778,9.90777778
http://www.wikidata.org/entity/Q2464072,Töpfereimuseum Langerwehe,50.8159,6.35539
http://www.wikidata.org/entity/Q2540971,Walchensee-Museum,47.618222,11.346611
http://www.wikidata.org/entity/Q2354848,Straßenindustriemuseum Ennepetal,51.298555555556,7.3529222222222
http://www.wikidata.org/entity/Q2533311,Vonderau Museum,50.5511,9.67861
http://www.wikidata.org/entity/Q2327172,Stadtgeschichtliches Museum (Wolgast),54.0545,13.7778
http://www.wikidata.org/entity/Q2354762,Straßenbahnmuseum Halle,51.502716,11.957889
http://www.wikidata.org/entity/Q2407925,Textilmuseum Die Scheune,51.3447,6.2609
http://www.wikidata.org/entity/Q2327655,musée de Dresde,51.0501,13.743
http://www.wikidata.org/entity/Q2543217,Walpurgishalle,51.7327,11.0261
http://www.wikidata.org/entity/Q2375424,Synagoge Freudental,49.01,9.05879
http://www.wikidata.org/entity/Q2556864,Weiße Grube Imsbach,49.5917,7.8997
http://www.wikidata.org/entity/Q2349177,Stiftung Stadtmuseum Berlin,52.516752,13.407166
http://www.wikidata.org/entity/Q2530352,Musée en plein air de Vogtland Landwüst,50.27,12.3313
http://www.wikidata.org/entity/Q2349011,Stiftung Historische Museen Hamburg,53.55111111,9.97305556
http://www.wikidata.org/entity/Q2327677,Stadtmuseum Ludwigshafen,49.4856,8.44314
http://www.wikidata.org/entity/Q2339480,SteinZeiten,53.54744444,9.98658333
http://www.wikidata.org/entity/Q2563859,Weserburg Museum für moderne Kunst,53.0764,8.79889
http://www.wikidata.org/entity/Q2354751,Straßenbahnmuseum Dresden,51.0864,13.7294
http://www.wikidata.org/entity/Q2354776,Straßenbahn-Museum Thielenbruch,50.9784,7.08586
http://www.wikidata.org/entity/Q2401758,Telemann-Museum,53.55123889,9.97654722
http://www.wikidata.org/entity/Q2399460,Technisches Landesmuseum,53.89363889,11.43066111
http://www.wikidata.org/entity/Q2525048,villa Esche,50.815,12.9011
http://www.wikidata.org/entity/Q1601079,Sieblos-Museum,50.4893,9.8696
http://www.wikidata.org/entity/Q1608325,"Herbert-Gerisch-Stiftung. Neumünster, Allemagne",54.07531357,9.99905014
http://www.wikidata.org/entity/Q1606092,Henrichshütte,51.4075,7.1883333333333
http://www.wikidata.org/entity/Q1628537,Hornmoldhaus,48.9594,9.12532
http://www.wikidata.org/entity/Q1623190,Hofmarkmuseum Schloss Eggersberg,48.9721,11.6489
http://www.wikidata.org/entity/Q1641994,Hällisch-Fränkisches Museum,49.1113,9.73676
http://www.wikidata.org/entity/Q1569133,Haidhausen-Museum,48.1338,11.6014
http://www.wikidata.org/entity/Q1575530,Haniel-Museum,51.4513,6.73325
http://www.wikidata.org/entity/Q1624958,Holländerwindmühle Straupitz,51.9159,14.127
http://www.wikidata.org/entity/Q1590863,Haus der kleinen Wunder,50.4025,10.0048
http://www.wikidata.org/entity/Q1637521,Stiftsmuseum der Stadt Aschaffenburg,49.973862789907,9.1464520273038
http://www.wikidata.org/entity/Q1595523,Heimat- und Naturkunde-Museum Wanne-Eickel,51.5429,7.14404
http://www.wikidata.org/entity/Q1575394,Hanfmuseum,52.5167,13.4081
http://www.wikidata.org/entity/Q1603145,Me Collectors Room Berlin,52.527,13.3952
http://www.wikidata.org/entity/Q1620996,Historisches Museum Saar,49.23,6.99156
http://www.wikidata.org/entity/Q1595524,Heimat- und Palitzschmuseum Prohlis,51.0074,13.7935
http://www.wikidata.org/entity/Q1596436,Heinrich-Lübke-Haus,51.371,7.96762
http://www.wikidata.org/entity/Q1627574,Museum Haus Hansestadt Danzig,53.8721,10.6851
http://www.wikidata.org/entity/Q1655054,Collection d'État de monnaies de Munich,48.1411,11.5781
http://www.wikidata.org/entity/Q1590503,Haus Schlesien,50.6964,7.23083
http://www.wikidata.org/entity/Q1587142,Katzenmuseum,47.8669,12.6317
http://www.wikidata.org/entity/Q1595656,Heimatmuseum Homberg (Efze),51.03411944,9.40609444
http://www.wikidata.org/entity/Q1656644,Kleines Stuck-Museum,48.019,7.84739
http://www.wikidata.org/entity/Q1594074,Naturhistorisches Museum Schleusingen,50.5092,10.7493
http://www.wikidata.org/entity/Q1629901,Internationales Artistenmuseum,52.7975,13.4789
http://www.wikidata.org/entity/Q1614098,Herrenhaus der Herzöge von Mecklenburg,53.7026,10.7755
http://www.wikidata.org/entity/Q1607050,Museum für Ur- und Frühgeschichte Thüringens,50.975494444444,11.326041666667
http://www.wikidata.org/entity/Q1586468,Mädchen-Bürgerschule,53.6821,9.65583
http://www.wikidata.org/entity/Q1595527,Heimat- und Tabakmuseum Elsenz,49.175,8.83575
http://www.wikidata.org/entity/Q1590306,Haus Letmathe,51.3661,7.60833
http://www.wikidata.org/entity/Q1621000,Historisches Museum der Stadt Bielefeld,52.0224,8.54417
http://www.wikidata.org/entity/Q1618662,Reichskammergerichtsmuseum,50.5534,8.50187
http://www.wikidata.org/entity/Q1628447,RELíGIO - Westfälisches Museum für religiöse Kultur,51.9847,7.78639
http://www.wikidata.org/entity/Q1567452,Spohr Museum,51.3181,9.48785
http://www.wikidata.org/entity/Q1590762,Haus der Geschichte Wittenberg,51.8663,12.6415
http://www.wikidata.org/entity/Q1586071,Textilfabrik Cromford,51.30617,6.85344
http://www.wikidata.org/entity/Q1592679,Hebbel-Museum,54.2128,8.9239
http://www.wikidata.org/entity/Q1643659,Museum Oberschönenfeld,48.3123,10.7265
http://www.wikidata.org/entity/Q1573230,Hamburgisches Architekturarchiv,53.5455,10.00148
http://www.wikidata.org/entity/Q1623755,Hohenloher Freilandmuseum Wackershofen,49.1356,9.6979805555556
http://www.wikidata.org/entity/Q1567953,Hafenmuseum (Bremen),53.0965,8.77147
http://www.wikidata.org/entity/Q1639134,Regional-Museum Sehnde,52.3126,10.0022
http://www.wikidata.org/entity/Q1652601,Hüttenmuseum Thale,51.7447,11.0278
http://www.wikidata.org/entity/Q1648029,Oldenburger Wallmuseum,54.2964,10.8825
http://www.wikidata.org/entity/Q1626567,Turmuhrenmuseum Bockenem,52.0086,10.1293
http://www.wikidata.org/entity/Q1590619,Tobiashammer,50.8019,10.7318
http://www.wikidata.org/entity/Q1619091,Himmelfahrt Fundgrube,50.9283,13.3581
http://www.wikidata.org/entity/Q1568259,Tunnelmuseum Niederwillingen,50.7719,11.0356
http://www.wikidata.org/entity/Q1620940,Historischer Kunstbunker,49.4568,11.0754
http://www.wikidata.org/entity/Q1604698,Hemberg-Museum Iserlohn,51.38958056,7.70113889
http://www.wikidata.org/entity/Q1615129,Kunsthalle Wilhelmshaven,53.522111111111,8.1213333333333
http://www.wikidata.org/entity/Q1635322,Museum Hofmühle Dresden,51.0301,13.7022
http://www.wikidata.org/entity/Q1590066,Haus Elsfleth,53.2376,8.46464
http://www.wikidata.org/entity/Q1592349,Museum der Natur Gotha,50.9433,10.7058
http://www.wikidata.org/entity/Q1615331,musée ducal de Gotha,50.9433,10.7058
http://www.wikidata.org/entity/Q1620998,Historisches Museum Hanau,50.1274,8.89242
http://www.wikidata.org/entity/Q1638032,Hunsrück-Museum Simmern,49.98349,7.52027
http://www.wikidata.org/entity/Q1582567,Naturalienkabinett Waldenburg,50.87611111,12.60611111
http://www.wikidata.org/entity/Q1576734,Kulturzentrum Ostpreußen,49.06076,10.96416
http://www.wikidata.org/entity/Q1610410,Hermann-Hesse-Museum,48.7151,8.73768
http://www.wikidata.org/entity/Q1620850,Historische Fabrikenanlage Maste-Barendorf,51.4086,7.69333
http://www.wikidata.org/entity/Q1615340,Herzogskasten (Abensberg),48.814607906501,11.845590176911
http://www.wikidata.org/entity/Q1569855,Mineralogisches Museum Münster,51.9617,7.61389
http://www.wikidata.org/entity/Q1571828,Halloren- und Salinemuseum,51.4822,11.9596
http://www.wikidata.org/entity/Q1606134,musée Henriette-Davidis,51.40125,7.3429444444444
http://www.wikidata.org/entity/Q1620991,Historisches Museum Aurich,53.4693,7.48042
http://www.wikidata.org/entity/Q1609990,Heringsfängermuseum Heimsen,52.465,9.06056
http://www.wikidata.org/entity/Q1590355,Haus Martfeld,51.291527777778,7.3083333333333
http://www.wikidata.org/entity/Q1573230,Hamburgisches Architekturarchiv,53.5454,10.0012
http://www.wikidata.org/entity/Q1610464,Hermann-Oberth-Raumfahrt-Museum,49.375,11.211666666667
http://www.wikidata.org/entity/Q1620980,Historisches Centrum Hagen,51.3478,7.49092
http://www.wikidata.org/entity/Q1636615,musée minéralogique de Wurtzbourg,49.7824,9.9702
http://www.wikidata.org/entity/Q1595655,Heimatmuseum der Bessarabien- und Dobrudschadeutschen,48.7844,9.2067
http://www.wikidata.org/entity/Q1596464,Heinrich-Schütz-Haus (Weißenfels),51.1996,11.9709
http://www.wikidata.org/entity/Q1596362,Heinrich-Büssing-Haus,52.4014,10.8317
http://www.wikidata.org/entity/Q1618463,Schloss Ratibor,49.2451,11.0901
http://www.wikidata.org/entity/Q1595663,Heimatmuseum im Spitalhof Möhringen,48.7274,9.1462
http://www.wikidata.org/entity/Q1616741,Hexenbürgermeisterhaus,52.025,8.89972
http://www.wikidata.org/entity/Q1590279,musée B.C. Koekkoek-Haus,51.79,6.13775
http://www.wikidata.org/entity/Q1589362,maison Mozart à Augsbourg,48.3756,10.8957
http://www.wikidata.org/entity/Q1600696,Heinz Nixdorf MuseumsForum,51.7314,8.73564
http://www.wikidata.org/entity/Q1607597,Henstedter Dorfmuseum,52.8669,8.82915
http://www.wikidata.org/entity/Q1595626,Heimatmuseum Halver,51.1883,7.50139
http://www.wikidata.org/entity/Q1571630,Hallertauer Hopfen- und Heimatmuseum,48.684167,11.612744
http://www.wikidata.org/entity/Q1590486,Haus Ruhrnatur,51.420777777778,6.8760833333333
http://www.wikidata.org/entity/Q1595660,Heimatmuseum für Stadt und Landkreis Neudek,48.3431,10.8689
http://www.wikidata.org/entity/Q1650436,Skulpturensammlung und Museum für Byzantinische Kunst,52.52163,13.39499
http://www.wikidata.org/entity/Q1595576,Heimathaus Pfronten,47.5855,10.5585
http://www.wikidata.org/entity/Q1595658,Heimatmuseum des Nordböhmischen Niederlandes,48.68525,9.0121944444444
http://www.wikidata.org/entity/Q1620872,Historische Kornbrennerei Bimberg,51.457,7.66404
http://www.wikidata.org/entity/Q1586925,Harry’s klingendes Museum,52.67246944,9.61758056
http://www.wikidata.org/entity/Q1616272,Hetjens-Museum,51.2239,6.77111
http://www.wikidata.org/entity/Q1657623,Nahverkehrsmuseum Dortmund,51.5491,7.40666
http://www.wikidata.org/entity/Q1576940,Hans-Fallada-Haus,53.3018,13.4449
http://www.wikidata.org/entity/Q1637298,Humpis-Quartier,47.7805,9.6159
http://www.wikidata.org/entity/Q1590812,Haus der Stadtgeschichte (Offenbach am Main),50.1084,8.7616
http://www.wikidata.org/entity/Q1575234,Handwebmuseum,50.4719,6.87719
http://www.wikidata.org/entity/Q1620006,Wachsmuseum Krumbach,48.252889,10.357645
http://www.wikidata.org/entity/Q1656111,Lepramuseum Münster,52.0,7.61167
http://www.wikidata.org/entity/Q1590714,Haus am Checkpoint Charlie,52.5069,13.3907
http://www.wikidata.org/entity/Q882796,Château de Brunswick,52.2631,10.5272
http://www.wikidata.org/entity/Q874373,musée allemand de l'hygiène,51.0443,13.7466
http://www.wikidata.org/entity/Q1013453,Burg Pappenheim,48.9328,10.9716
http://www.wikidata.org/entity/Q998456,Hinterlandmuseum Château de Biedenkopf,50.9154,8.52671
http://www.wikidata.org/entity/Q866205,Bischofsturm (Hamburg),53.55,9.9975
http://www.wikidata.org/entity/Q894269,Borusseum,51.4937395,7.4529653
http://www.wikidata.org/entity/Q891746,Bomann-Museum,52.6242,10.0796
http://www.wikidata.org/entity/Q1012867,Burg Lauenstein (Frankenwald),50.513287381457,11.369996131783
http://www.wikidata.org/entity/Q896624,Quadrat Bottrop,51.5313,6.91792
http://www.wikidata.org/entity/Q870256,Nietzsche-Archiv,50.9716,11.3181
http://www.wikidata.org/entity/Q998793,Buchstabenmuseum,52.52015,13.345
http://www.wikidata.org/entity/Q1013131,Burg Mildenstein,51.1623,12.9255
http://www.wikidata.org/entity/Q897945,Brandenburgisches Apothekenmuseum,51.7604,14.3344
http://www.wikidata.org/entity/Q1013517,Burg Posterstein,50.8631,12.2528
http://www.wikidata.org/entity/Q860844,Bildhauermuseum Prof. Wandschneider,53.4583,12.2611
http://www.wikidata.org/entity/Q882413,collégiale Saint-Servais de Quedlinbourg,51.7858,11.1368
http://www.wikidata.org/entity/Q884264,Blindenmuseum,52.3625,9.80483
http://www.wikidata.org/entity/Q854289,FHXB Friedrichshain-Kreuzberg Museum,52.5006,13.4186
http://www.wikidata.org/entity/Q998667,musée du livre de la bibliothèque du Land de Saxe,51.0286,13.7369
http://www.wikidata.org/entity/Q870375,Domschatz Quedlinburg,51.78575,11.137
http://www.wikidata.org/entity/Q1021703,Bürstenbindermuseum Ramberg,49.2613,8.0088
http://www.wikidata.org/entity/Q1012188,Burg Harburg,48.785,10.687
http://www.wikidata.org/entity/Q896528,"Deutsches Uhrenmuseum. Furtwangen im Schwarzwald, Allemagne",48.0509,8.20785
http://www.wikidata.org/entity/Q973927,Moor- und Fehnmuseum Elisabethfehn,53.15,7.71
http://www.wikidata.org/entity/Q907621,Bremer Geschichtenhaus,53.0726,8.80958
http://www.wikidata.org/entity/Q1015543,Burgruine Sulzberg,47.654,10.3443
http://www.wikidata.org/entity/Q896647,Ferropolis,51.7617,12.4489
http://www.wikidata.org/entity/Q881418,musée Otto-Lilienthal,53.8539,13.7047
http://www.wikidata.org/entity/Q895571,Boxenstop Tübingen,48.5238,9.0628
http://www.wikidata.org/entity/Q869696,Kunsthalle Dominikanerkirche,52.2789,8.03956
http://www.wikidata.org/entity/Q882430,Ethnologische Sammlung der Universität Göttingen,51.535,9.94083
http://www.wikidata.org/entity/Q881603,Georgstor,50.4391,6.64725
http://www.wikidata.org/entity/Q863965,Binnenschifffahrtsmuseum (Oderberg),52.8642,14.046
http://www.wikidata.org/entity/Q896954,Bradford Sammelteller-Museum,49.9648,8.82239
http://www.wikidata.org/entity/Q879055,Deutsches Zweirad- und NSU-Museum,49.1916,9.2224
http://www.wikidata.org/entity/Q878560,Festung Dömitz,53.1424,11.2457
http://www.wikidata.org/entity/Q916993,Brikettfabrik Herrmannschacht,51.054,12.1116
http://www.wikidata.org/entity/Q895735,Haus Rüschhaus,51.990662,7.552318
http://www.wikidata.org/entity/Q886162,Blumberger Mühle,53.0351,13.9658
http://www.wikidata.org/entity/Q1014027,Schloss Spielberg,49.045694444444,10.714916666667
http://www.wikidata.org/entity/Q996430,Haus der Natur Cismar,54.1882,10.9828
http://www.wikidata.org/entity/Q1011988,Burg Gnandstein,51.0183,12.5758
http://www.wikidata.org/entity/Q985083,Museumsstellwerk Mfw Mühldorf,48.248381,12.504742
http://www.wikidata.org/entity/Q857725,Bier- und Oktoberfestmuseum,48.1353,11.5803
http://www.wikidata.org/entity/Q1013521,Burg Prunn,48.950277777778,11.739583333333
http://www.wikidata.org/entity/Q877252,Krameramtsstuben,53.548,9.9802
http://www.wikidata.org/entity/Q897462,Museum Biberach,48.0979,9.79015
http://www.wikidata.org/entity/Q896952,"Deutsches Bergbau-Museum. Bochum, Allemagne",51.4892,7.21722
http://www.wikidata.org/entity/Q1020395,Büchnerhaus,49.8355,8.50012
http://www.wikidata.org/entity/Q989755,Mühlenhof Breckerfeld,51.270877777778,7.4536222222222
http://www.wikidata.org/entity/Q896935,musée Roemer et Pelizaeus,52.149326805556,9.9441505
http://www.wikidata.org/entity/Q878029,musée central romain-germanique,50.0061,8.26972
http://www.wikidata.org/entity/Q998793,Buchstabenmuseum,52.5222,13.4074
http://www.wikidata.org/entity/Q907818,Bremer Rundfunkmuseum,53.0884,8.80657
http://www.wikidata.org/entity/Q902065,musée régional du Brunswick,52.2647,10.5231
http://www.wikidata.org/entity/Q873650,château de Nöthnitz,51.0039,13.7304
http://www.wikidata.org/entity/Q1014653,Burg Wolfsegg,49.1068,11.9764
http://www.wikidata.org/entity/Q883810,château de Seehof,49.926972325296,10.947638527295
http://www.wikidata.org/entity/Q995765,Brömserburg,49.97789,7.91784
http://www.wikidata.org/entity/Q857335,Kunstverein Bielefeld,52.0191,8.52814
http://www.wikidata.org/entity/Q895061,Boulemuseum,52.1744,9.14607
http://www.wikidata.org/entity/Q1012744,château de Kriebstein,51.0424,13.0176
http://www.wikidata.org/entity/Q995765,Brömserburg,49.9776,7.9177
http://www.wikidata.org/entity/Q1036560,musée Carl-Maria von Weber,51.0168,13.8645
http://www.wikidata.org/entity/Q1010631,Burg- und Schlossmuseum Jägersburg,49.3706,7.32139
http://www.wikidata.org/entity/Q1014871,Burgenmuseum,50.6889,6.47725
http://www.wikidata.org/entity/Q1009599,Bunkermuseum Frauenwald,50.6063,10.8464
http://www.wikidata.org/entity/Q892157,Bonbon-Museum,48.955,8.98733
http://www.wikidata.org/entity/Q881787,château de Waldeck,51.2038,9.05576
http://www.wikidata.org/entity/Q882600,Hamburg Dungeon,53.543871,9.9894039
http://www.wikidata.org/entity/Q895668,château de Neuenburg,51.2085,11.7755
http://www.wikidata.org/entity/Q916065,Brigitte-Reimann-Literaturhaus,53.5533,13.2664
http://www.wikidata.org/entity/Q876521,Wendener Hütte,50.9708,7.82799
http://www.wikidata.org/entity/Q916995,Brikettfabrik Louise,51.5833,13.4158
http://www.wikidata.org/entity/Q883163,Mauritianum,50.9919785,12.4464284
http://www.wikidata.org/entity/Q1010850,Burg Arras,50.0526,7.10583
http://www.wikidata.org/entity/Q895735,Haus Rüschhaus,51.9856,7.55111
http://www.wikidata.org/entity/Q895677,Jahrtausendturm,52.138777777778,11.666416666667
http://www.wikidata.org/entity/Q900094,Brauerei-Museum Dortmund,51.529586111111,7.4670972222222
http://www.wikidata.org/entity/Q996623,Museum der Strohverarbeitung,52.8036,8.63836
http://www.wikidata.org/entity/Q879819,château de Moritzburg,51.486111,11.963333
http://www.wikidata.org/entity/Q994937,Technikmuseum Kummersdorf,52.0957,13.3653
http://www.wikidata.org/entity/Q885326,musée rhénan de Trèves,49.7518,6.6445
http://www.wikidata.org/entity/Q878253,château de Weimar,50.9806,11.3322
http://www.wikidata.org/entity/Q1014027,Schloss Spielberg,49.045559519517,10.715391707679
http://www.wikidata.org/entity/Q1036540,Carl-Julius-Weber-Gedenkstube,49.2534,9.84702
http://www.wikidata.org/entity/Q897877,Brandenburg-Preussen Museum,52.84791,12.8635761
http://www.wikidata.org/entity/Q921940,Rieckhaus,53.459305,10.214595
http://www.wikidata.org/entity/Q880798,Mémorial de la Résistance allemande,52.5078,13.3625
http://www.wikidata.org/entity/Q884584,Deutsches Optisches Museum,50.927811111111,11.579275
http://www.wikidata.org/entity/Q896879,Eremitage,49.948946898476,11.624869274098
http://www.wikidata.org/entity/Q881667,Blankschmiede Neimke,51.8017,9.69369
http://www.wikidata.org/entity/Q1015064,Burghof (Soest),51.5682,8.11142
http://www.wikidata.org/entity/Q1037126,Carl Bosch Museum Heidelberg,49.4155,8.73015
http://www.wikidata.org/entity/Q1015115,Kulturforum Burgkloster,53.8735,10.6893
http://www.wikidata.org/entity/Q1030210,Mäulesmühle,48.6835,9.12829
http://www.wikidata.org/entity/Q1014241,château de Thurant,50.2482,7.45291
http://www.wikidata.org/entity/Q882079,Technoseum,49.4764,8.49755
http://www.wikidata.org/entity/Q869690,Skulpturensammlung Dresden,51.0519,13.7444
http://www.wikidata.org/entity/Q896879,Eremitage,49.948055555556,11.623888888889
http://www.wikidata.org/entity/Q1730113,Musée Karl May de Radebeul,51.1027,13.6735
http://www.wikidata.org/entity/Q1662090,Musée industriel de Chemnitz,50.8241,12.8997
http://www.wikidata.org/entity/Q1750020,abbaye d'Ebstorf,53.0306,10.4122
http://www.wikidata.org/entity/Q1662112,Mondo mio!,51.4969,7.472
http://www.wikidata.org/entity/Q1764244,Stadtmuseum Bocholt,51.8381,6.62006
http://www.wikidata.org/entity/Q1773801,Panoptikum Hamburg,53.54944444,9.9675
http://www.wikidata.org/entity/Q1721563,Kaiser Wilhelm Museum,51.33027778,6.55944444
http://www.wikidata.org/entity/Q1667774,Internationales Keramik-Museum Weiden,49.678194444444,12.164
http://www.wikidata.org/entity/Q1713629,Junkerhaus,52.026,8.91704
http://www.wikidata.org/entity/Q1668511,Schulmuseum Bergisch Gladbach – Sammlung Cüppers,51.0089,7.08348
http://www.wikidata.org/entity/Q1719322,KZ-Gedenkstätte Hailfingen-Tailfingen,48.537076,8.851775
http://www.wikidata.org/entity/Q1759194,Museum der Stadt Bad Schwartau,53.9155,10.6985
http://www.wikidata.org/entity/Q1693493,Museum für Bodenschätzung,51.9486,11.6752
http://www.wikidata.org/entity/Q1736071,Katharinenhof Kranenburg,51.7889,6.00778
http://www.wikidata.org/entity/Q1716813,Jüdisches Museum Augsburg Schwaben,48.3655,10.892
http://www.wikidata.org/entity/Q1720764,Waldmuseum Zwiesel,49.0141,13.2312
http://www.wikidata.org/entity/Q1743135,Mittelmoselmuseum,49.9489,7.1121
http://www.wikidata.org/entity/Q1709513,Haus der Bayerischen Geschichte: Museum,49.0199,12.1032
http://www.wikidata.org/entity/Q1667112,Steinhauermuseum Mühlbach,49.0978,8.90235
http://www.wikidata.org/entity/Q1744763,Klaus-Groth-Museum,54.1929,9.09628
http://www.wikidata.org/entity/Q1658130,Ikonenmuseum Biedenkopf,50.91406246633,8.5290161306851
http://www.wikidata.org/entity/Q1747194,Prenzlauer Berg Museum,52.5333,13.4203
http://www.wikidata.org/entity/Q1735683,Terra-Sigillata-Museum,49.1197,8.27784
http://www.wikidata.org/entity/Q1679651,Panomètre de Dresde,51.0256,13.7883
http://www.wikidata.org/entity/Q1700293,Meteorkratermuseum,48.6787,10.0705
http://www.wikidata.org/entity/Q1714154,Wegemuseum Wusterhausen,52.8908,12.4611
http://www.wikidata.org/entity/Q1741851,Alice – Museum für Kinder,52.4588,13.5534
http://www.wikidata.org/entity/Q1662440,Infohaus Isarmündung,48.7753,12.9575
http://www.wikidata.org/entity/Q1746740,Schillerhäuschen Dresden,51.05755,13.81307
http://www.wikidata.org/entity/Q1726921,Schriftmuseum Rudolf Blanckertz,52.5272,13.4256
http://www.wikidata.org/entity/Q1727639,Museum Villa Rot,48.2229,9.95897
http://www.wikidata.org/entity/Q1670888,Schwind-Pavillon,51.011,12.6008
http://www.wikidata.org/entity/Q1717744,WOK – World of Kitchen,52.3875,9.74
http://www.wikidata.org/entity/Q1741777,Kinderbuchhaus im Altonaer Museum,53.54888889,9.93444444
http://www.wikidata.org/entity/Q1721656,Kaiserin Elisabeth Museum,47.961925,11.306805555556
http://www.wikidata.org/entity/Q1670280,Museum Starnberger See,47.9952,11.3396
http://www.wikidata.org/entity/Q1719763,Keramikmuseum Rheinsberg,53.0996,12.8925
http://www.wikidata.org/entity/Q1658131,"Ikonenmuseum. Recklinghausen, Allemagne",51.6154,7.1972
http://www.wikidata.org/entity/Q1662096,Industriemuseum Lauf,49.51,11.2775
http://www.wikidata.org/entity/Q1664350,Museum unter der Y-Burg,48.7864,9.34153
http://www.wikidata.org/entity/Q1665046,Rotkreuz-Museum Essen,51.4518,7.00821
http://www.wikidata.org/entity/Q1677179,Urwelt-Museum Oberfranken,49.9436,11.5767
http://www.wikidata.org/entity/Q1730042,Romanisches Haus,51.1356,11.7225
http://www.wikidata.org/entity/Q1752214,Schloss Erbach,49.6572,8.9925
http://www.wikidata.org/entity/Q1749649,Museum Alexandrowka,52.4117,13.0569
http://www.wikidata.org/entity/Q1688456,Landesmuseum für Vorgeschichte Dresden,51.05972222,13.7375
http://www.wikidata.org/entity/Q1661341,Indianermuseum Derenburg,49.0392,8.68655
http://www.wikidata.org/entity/Q1728249,Museum Heineanum,51.8965,11.0484
http://www.wikidata.org/entity/Q1686858,Jenisch-Haus,53.5525,9.86555556
http://www.wikidata.org/entity/Q1673841,Isergebirgs-Museum Neugablonz,47.9138,10.6371
http://www.wikidata.org/entity/Q1718706,Römermuseum Pachten,49.355,6.70853
http://www.wikidata.org/entity/Q1662092,Industriemuseum Elmshorn,53.7556,9.65694
http://www.wikidata.org/entity/Q1717751,Museum KulturLand Ries,48.9289,10.4914
http://www.wikidata.org/entity/Q1770126,Theodor-Heuss-Haus,48.7939,9.16778
http://www.wikidata.org/entity/Q1681212,Römerhaus Walheim,49.0134,9.15611
http://www.wikidata.org/entity/Q1748439,Museum für Architektur und Ingenieurkunst NRW,51.4964,7.1062
http://www.wikidata.org/entity/Q1670888,Schwind-Pavillon,51.018109,12.601353
http://www.wikidata.org/entity/Q1704145,Josef-Hegenbarth-Archiv,51.0501,13.8204
http://www.wikidata.org/entity/Q1681176,Stiftlandmuseum,50.0026,12.3081
http://www.wikidata.org/entity/Q1673285,Kulturhistorisches Museum de Magdebourg,52.1256,11.6295
http://www.wikidata.org/entity/Q1751346,Römermuseum Osterburken,49.4293,9.42542
http://www.wikidata.org/entity/Q1764904,Museum für Kindheits- und Jugendwerke bedeutender Künstler,52.0607,8.36283
http://www.wikidata.org/entity/Q1762268,Mitspielzeugmuseum,51.31489,12.40712
http://www.wikidata.org/entity/Q1724924,Spengler-Museum,51.4785,11.2942
http://www.wikidata.org/entity/Q1667722,Internationales Feuerwehrmuseum Schwerin,53.594,11.4557
http://www.wikidata.org/entity/Q1658130,Ikonenmuseum Biedenkopf,50.9133,8.52848
http://www.wikidata.org/entity/Q1662095,Industriemuseum Howaldtsche Metallgießerei,54.3306,10.1775
http://www.wikidata.org/entity/Q1723135,Museum der Stadt Miltenberg,49.699040385407,9.251822760044
http://www.wikidata.org/entity/Q1771700,Museum Ratingen,51.298782,6.847107
http://www.wikidata.org/entity/Q1728952,Schauwerk Sindelfingen,48.7019,9.02602
http://www.wikidata.org/entity/Q1711655,Passauer Glasmuseum,48.5753,13.4686
http://www.wikidata.org/entity/Q1692137,Johann-Friedrich-Danneil-Museum,52.8491,11.1481
http://www.wikidata.org/entity/Q1772989,Theodor-Heuss-Museum der Stadt Brackenheim,49.077,9.06618
http://www.wikidata.org/entity/Q1754671,Puppentheatersammlung Dresden,51.0578,13.7439
http://www.wikidata.org/entity/Q1662094,Industriemuseum Geschichtswerkstatt Herrenwyk,53.9036,10.8047
http://www.wikidata.org/entity/Q1739170,Keramikmuseum Westerwald,50.4428,7.65683
http://www.wikidata.org/entity/Q1746253,Kügelgenhaus – Museum der Dresdner Romantik,51.06,13.7428
http://www.wikidata.org/entity/Q1710288,Ju-52-Museum,52.4572,9.42722
http://www.wikidata.org/entity/Q1742171,Südschwäbisches Archäologiemuseum Mindelheim,48.046444,10.485194
http://www.wikidata.org/entity/Q1774698,Kölner Festungsmuseum,50.8986,6.98256
http://www.wikidata.org/entity/Q1739971,Kettenschmiedemuseum Fröndenberg,51.4714,7.77083
http://www.wikidata.org/entity/Q1701506,John Rabe Communication Centre,49.4189,8.69507
http://www.wikidata.org/entity/Q1682825,Museum Villa Haiss,48.3477,8.067
http://www.wikidata.org/entity/Q1662969,palais impérial d'Ingelheim,49.9775,8.0715
http://www.wikidata.org/entity/Q1672701,Iris-Jörg,53.7736,9.32214
http://www.wikidata.org/entity/Q1769820,Stones Fan Museum,52.968016,11.154526
http://www.wikidata.org/entity/Q1750111,Stadt- und Dampfmaschinenmuseum Werdau,50.7327,12.3738
http://www.wikidata.org/entity/Q1745971,Freilichtmuseum Klausenhof,47.68081944,8.007475
http://www.wikidata.org/entity/Q1746437,Worpsweder Käseglocke,53.218575,8.9296630555556
http://www.wikidata.org/entity/Q1739862,Lebendiges Bienenmuseum Knüllwald,51.0425,9.52363
http://www.wikidata.org/entity/Q1760885,Museum Villa Stahmer,52.2036,8.05361
http://www.wikidata.org/entity/Q1699381,Technik- und Verkehrsmuseum Stade,53.6103,9.47806
http://www.wikidata.org/entity/Q1660509,Nautineum Stralsund,54.30527778,13.11638889
http://www.wikidata.org/entity/Q1739970,Kettenschmiedemuseum Sichtigvor,51.489,8.27858
http://www.wikidata.org/entity/Q1719322,KZ-Gedenkstätte Hailfingen-Tailfingen,48.5517,8.87531
http://www.wikidata.org/entity/Q1713953,Teppichmuseum Tönsmann,52.3872,8.6275
http://www.wikidata.org/entity/Q1741730,Kinder- und Jugendmuseum München,48.1415,11.5581
http://www.wikidata.org/entity/Q1662097,Industriemuseum Lohne,52.6657,8.23025
http://www.wikidata.org/entity/Q1702827,Uhrenmuseum Bad Grund,51.8078,10.2425
http://www.wikidata.org/entity/Q1688810,Schloss Baldern,48.9026,10.3169
http://www.wikidata.org/entity/Q1208488,Dialogmuseum,50.1122,8.71361
http://www.wikidata.org/entity/Q1205760,Deutsches Kartoffelmuseum,49.457565,8.294139
http://www.wikidata.org/entity/Q1205770,Musée allemand des jardins familiaux,51.3394,12.3569
http://www.wikidata.org/entity/Q1205779,Deutsches Kochbuchmuseum,51.49222,7.48028
http://www.wikidata.org/entity/Q1205566,Deutsches Bienenmuseum Weimar,50.9658,11.3437
http://www.wikidata.org/entity/Q1205644,"Deutsches Freimaurermuseum. Bayreuth, Allemagne",49.941410427867,11.58089947493
http://www.wikidata.org/entity/Q1124528,Conditorei-Museum,49.7392,10.1621
http://www.wikidata.org/entity/Q1205557,Deutsches Baumschulmuseum,53.6416,9.8206
http://www.wikidata.org/entity/Q1205576,"Deutsches Buch- und Schriftmuseum. Leipzig, Allemagne",51.32215556,12.39658056
http://www.wikidata.org/entity/Q1229589,Musée des véhicules saxons,50.8262,12.9083
http://www.wikidata.org/entity/Q1157914,Dalí – Die Ausstellung am Potsdamer Platz,52.5088744,13.3785763
http://www.wikidata.org/entity/Q1205993,Deutsches Spielkartenmuseum,48.6902,9.13848
http://www.wikidata.org/entity/Q1158755,Dampf- und Traktorentreffen im Freilichtmuseum am Kiekeberg,53.4398,9.9038
http://www.wikidata.org/entity/Q1152700,DDR-Museum Pirna,50.9438,13.9434
http://www.wikidata.org/entity/Q1205711,Deutsches Höhlenmuseum Iserlohn,51.3656,7.64472
http://www.wikidata.org/entity/Q1146088,Museum im Koffer,49.44283,11.05214
http://www.wikidata.org/entity/Q1205757,Deutsches Kabarettarchiv,49.9993,8.26511
http://www.wikidata.org/entity/Q1226191,Historisches Schuhmuseum Pflanz,48.0522,10.8771
http://www.wikidata.org/entity/Q1142984,Cubus Kunsthalle,51.43,6.76833
http://www.wikidata.org/entity/Q1205661,Deutsches Glasmalerei-Museum,50.9797,6.26917
http://www.wikidata.org/entity/Q1205988,Musée allemand du jeu,50.8206,12.8927
http://www.wikidata.org/entity/Q1157100,Daetz-Centrum,50.7586,12.637
http://www.wikidata.org/entity/Q1205623,"3F Deutsches Museum für Foto-, Film- und Fernsehtechnik",49.4075,8.18744
http://www.wikidata.org/entity/Q1205841,Deutsches Museum Bonn,50.6997,7.14983
http://www.wikidata.org/entity/Q1232270,Haus Schulenburg,50.8671,12.0607
http://www.wikidata.org/entity/Q1205774,Deutsches Klingenmuseum,51.2097,7.0725
http://www.wikidata.org/entity/Q1206028,Deutsches Stuhlmuseum Eimbeckhausen,52.2359,9.4098
http://www.wikidata.org/entity/Q1206029,Deutsches Tabak- und Zigarrenmuseum,52.1956,8.58181
http://www.wikidata.org/entity/Q1206138,Deutsches Zollmuseum,53.54611111,9.99916667
http://www.wikidata.org/entity/Q1235186,Dokumentationsstätte Gefangenenhaus Ostertorwache,53.0732,8.81505
http://www.wikidata.org/entity/Q1205971,Deutsches Schützenmuseum,50.277778,10.922778
http://www.wikidata.org/entity/Q1205892,"Deutsches Plakat-Museum. Essen, Allemagne",51.44166667,7.00416667
http://www.wikidata.org/entity/Q1205844,musée allemand des automates à musique,49.1287,8.59796
http://www.wikidata.org/entity/Q1123124,Museum für Franken,49.7897,9.92139
http://www.wikidata.org/entity/Q1205697,Deutsches Hirtenmuseum,49.5099,11.4293
http://www.wikidata.org/entity/Q1154333,DKB-Zeitreise,50.6351,6.47438
http://www.wikidata.org/entity/Q1205559,Böblinger Bauernkriegsmuseum,48.68489,9.01057
http://www.wikidata.org/entity/Q1232935,Museumsstiftung Post und Telekommunikation,50.70652,7.138626
http://www.wikidata.org/entity/Q1205891,Deutsches Pressemuseum Hamburg,53.5724,9.99013
http://www.wikidata.org/entity/Q1205822,Deutsches Marinemuseum,53.51305556,8.14055556
http://www.wikidata.org/entity/Q1205666,Deutsches Goldschmiedehaus,50.1367,8.91778
http://www.wikidata.org/entity/Q1212272,Die Eulenburg. Universitäts- und Stadtmuseum Rinteln,52.1844,9.0775
http://www.wikidata.org/entity/Q1230662,Joachim-Ringelnatz-Museum,53.8581,8.70008
http://www.wikidata.org/entity/Q1206139,Deutsches Zusatzstoffmuseum,53.54245,10.01723
http://www.wikidata.org/entity/Q1200705,Designpanoptikum,52.5282,13.3909
http://www.wikidata.org/entity/Q1167242,Deutsches Hopfenmuseum,48.6041,11.6278
http://www.wikidata.org/entity/Q1232270,Haus Schulenburg,50.867217,12.060571
http://www.wikidata.org/entity/Q1110620,Römermuseum Stettfeld,49.182,8.64281
http://www.wikidata.org/entity/Q1205594,Deutsches Drahtmuseum,51.2942,7.67417
http://www.wikidata.org/entity/Q1152063,DB-Museum Halle,51.4893,11.986
http://www.wikidata.org/entity/Q1235188,Dokumentationszentrum Alltagskultur der DDR,52.1422,14.6312
http://www.wikidata.org/entity/Q1203723,Deutsche Raumfahrtausstellung,50.4629,12.4926
http://www.wikidata.org/entity/Q1205953,Deutsches Röntgen-Museum,51.1937,7.2595
http://www.wikidata.org/entity/Q1205886,Deutsches Peitschenmuseum,48.315883333333,9.0608805555556
http://www.wikidata.org/entity/Q1206069,Deutsches Traktoren- und Modellauto-Museum,51.73813889,8.77
http://www.wikidata.org/entity/Q1205967,Deutsches Schutzengelmuseum,49.0374,8.70526
http://www.wikidata.org/entity/Q1228119,Heimat- und Brauereimuseum Pleinfeld,49.106153,10.986429
http://www.wikidata.org/entity/Q1205952,Deutsches Salzmuseum,53.2433,10.4017
http://www.wikidata.org/entity/Q1228245,Archäologisches Museum Gunzenhausen,49.1151,10.7554
http://www.wikidata.org/entity/Q1229993,Stadtmuseum Neustadt an der Waldnaab,49.7307,12.1709
http://www.wikidata.org/entity/Q1205830,Deutsches Meeresmuseum,54.3126,13.0871
http://www.wikidata.org/entity/Q1205630,Deutsches Fleischermuseum,48.6852,9.01221
http://www.wikidata.org/entity/Q1152699,DDR-Museum Zeitreise,51.1036,13.6696
http://www.wikidata.org/entity/Q1235162,Dokumentations- und Gedenkstätte des BStU in der ehemaligen U-Haft der Stasi in Rostock,54.0847,12.1345
http://www.wikidata.org/entity/Q1158815,Dampfkornbranntweinbrennereimuseum,52.8971,8.43938
http://www.wikidata.org/entity/Q1205882,Deutsches Phonomuseum,48.1255,8.332
http://www.wikidata.org/entity/Q1205883,Deutsches Pferdemuseum,52.9227,9.23489
http://www.wikidata.org/entity/Q1205608,Deutsches Erdölmuseum Wietze,52.6603,9.83417
http://www.wikidata.org/entity/Q1205649,Deutsches Gartenbaumuseum,50.9675,11.0075
http://www.wikidata.org/entity/Q1205589,Deutsches Damast- und Frottiermuseum,50.899547,14.661028
http://www.wikidata.org/entity/Q1206100,"Deutsches Werbemuseum. Francfort-sur-le-Main, Allemagne",50.0996,8.68101
http://www.wikidata.org/entity/Q1205610,Deutsches Fastnachtmuseum,49.7362,10.1594
http://www.wikidata.org/entity/Q1205535,Deutsches Apotheken-Museum,49.4111,8.71538
http://www.wikidata.org/entity/Q1151730,DASA – Arbeitswelt Ausstellung,51.4984,7.42045
http://www.wikidata.org/entity/Q1117918,"Museum für Kutschen, Chaisen, Karren",48.6754,10.1497
http://www.wikidata.org/entity/Q1233191,Dobergmuseum,52.1952,8.58193
http://www.wikidata.org/entity/Q1205979,Deutsches Sielhafenmuseum Carolinensiel,53.6924,7.80206
http://www.wikidata.org/entity/Q1206037,Deutsches Tapetenmuseum,51.3108,9.49
http://www.wikidata.org/entity/Q1159481,Danewerkmuseum,54.48316,9.49827
http://www.wikidata.org/entity/Q1110943,Gerhart-Hauptmann-Museum,54.5852,13.1038
http://www.wikidata.org/entity/Q1205601,Deutsches Edelsteinmuseum,49.7189,7.30444
http://www.wikidata.org/entity/Q1172158,Dat ole Huus,53.1641,9.96034
http://www.wikidata.org/entity/Q1205854,Deutsches Märchen- und Wesersagenmuseum,52.2036,8.79583
http://www.wikidata.org/entity/Q1206030,Les Archives allemandes des journaux intimes,48.12023,7.84978
http://www.wikidata.org/entity/Q1225099,Oberhessisches Museum,50.587,8.6769
http://www.wikidata.org/entity/Q1205777,Deutsches Knopfmuseum,49.8109,12.4339
http://www.wikidata.org/entity/Q1232935,Museumsstiftung Post und Telekommunikation,50.706573055556,7.1385519444444
http://www.wikidata.org/entity/Q1172155,Dat ole Hus,54.071016,9.798034
http://www.wikidata.org/entity/Q1232004,Schlossmuseum Darmstadt,49.8734,8.65578
http://www.wikidata.org/entity/Q1206099,Deutsches Werkzeugmuseum,51.1978,7.165
http://www.wikidata.org/entity/Q1205561,Deutsches Bernsteinmuseum,54.2411,12.4322
http://www.wikidata.org/entity/Q1233657,Kunstpalais Erlangen,49.59724,11.00376
http://www.wikidata.org/entity/Q1206080,Deutsches Uhrenmuseum Glashütte,50.85191,13.77937
http://www.wikidata.org/entity/Q1231234,Stickereimuseum Oberhundem,51.086,8.17446
http://www.wikidata.org/entity/Q1230281,Dithmarscher Landesmuseum,54.0913,9.07347
http://www.wikidata.org/entity/Q1206140,Deutsches Zinnfigurenmuseum,50.1082,11.4634
http://www.wikidata.org/entity/Q1205955,Deutsches Schieferbergwerk,50.3264,7.22215
http://www.wikidata.org/entity/Q1154754,DOMiD,50.952328,6.91351
http://www.wikidata.org/entity/Q1226717,Dinotherium-Museum,49.705716,8.166414
http://www.wikidata.org/entity/Q1201900,Deutsch-deutsches Freilandmuseum,50.403741,10.436907
http://www.wikidata.org/entity/Q17353861,Museum für Architekturzeichnung,52.532071,13.410031
http://www.wikidata.org/entity/Q17575851,Hus-Museum Konstanz,47.658928,9.170857
http://www.wikidata.org/entity/Q17353569,Friedhofsmuseum Hannover,52.337562,9.790149
