[{"item":"http://www.wikidata.org/entity/Q115435934","itemLabel":"Polizeiinspektion Hof","latitude":"50.3152279","longitude":"11.8895764"},{"item":"http://www.wikidata.org/entity/Q47517039","itemLabel":"Autobahnpolizei Tauberbischofsheim","latitude":"49.601781","longitude":"9.690798"},{"item":"http://www.wikidata.org/entity/Q108990486","itemLabel":"Polizeirevier Gartenstraße","latitude":"48.707116114286","longitude":"9.0034729242325"},{"item":"http://www.wikidata.org/entity/Q108526012","itemLabel":"Polizeiposten Schwanau","latitude":"48.37923","longitude":"7.75487"},{"item":"http://www.wikidata.org/entity/Q111358580","itemLabel":"Kriminalkommissariat Mosbach","latitude":"49.355715309346","longitude":"9.1479598442904"},{"item":"http://www.wikidata.org/entity/Q56878399","itemLabel":"Hafenpolizeiwache No 2","latitude":"53.543107184097","longitude":"9.9830851837134"},{"item":"http://www.wikidata.org/entity/Q41313508","itemLabel":"Gebäude der Bayerischen Landpolizei","latitude":"49.79844","longitude":"9.91676"},{"item":"http://www.wikidata.org/entity/Q1177761","itemLabel":"Davidwache","latitude":"53.54916667","longitude":"9.96277778"},{"item":"http://www.wikidata.org/entity/Q107492364","itemLabel":"Polizeiwache Senftenberg","latitude":"51.522632946201","longitude":"14.001503318769"},{"item":"http://www.wikidata.org/entity/Q41351863","itemLabel":"Bayerische Landespolizei","latitude":"49.73584","longitude":"10.16424"},{"item":"http://www.wikidata.org/entity/Q108562256","itemLabel":"Polizeiposten Gengenbach","latitude":"48.40572","longitude":"8.01446"},{"item":"http://www.wikidata.org/entity/Q2101789","itemLabel":"Polizeipräsidium","latitude":"51.0507","longitude":"13.744"},{"item":"http://www.wikidata.org/entity/Q108188733","itemLabel":"Polizeistation Quickborn","latitude":"53.7485","longitude":"9.93444"},{"item":"http://www.wikidata.org/entity/Q66495101","itemLabel":"Polizeirevier Mosbach","latitude":"49.35622","longitude":"9.14815"},{"item":"http://www.wikidata.org/entity/Q66549500","itemLabel":"Polizeiposten Ilsfeld","latitude":"49.05586","longitude":"9.24635"},{"item":"http://www.wikidata.org/entity/Q66547842","itemLabel":"Polizeiposten Niedernhall","latitude":"49.29566","longitude":"9.61587"},{"item":"http://www.wikidata.org/entity/Q66495112","itemLabel":"Polizeirevier Weinsberg","latitude":"49.15197","longitude":"9.29207"},{"item":"http://www.wikidata.org/entity/Q66493636","itemLabel":"Polizeirevier Bad Mergentheim","latitude":"49.49264","longitude":"9.77682"},{"item":"http://www.wikidata.org/entity/Q66549593","itemLabel":"Polizeiposten Untergruppenbach","latitude":"49.08912","longitude":"9.27474"},{"item":"http://www.wikidata.org/entity/Q66547838","itemLabel":"Polizeiposten Krautheim","latitude":"49.38871","longitude":"9.63609"},{"item":"http://www.wikidata.org/entity/Q106728424","itemLabel":"Revierkommissariat Halle-Neustadt","latitude":"51.47999","longitude":"11.92214"},{"item":"http://www.wikidata.org/entity/Q98650346","itemLabel":"Baudenkmal D-1-62-000-311 in München im Ortsteil München","latitude":"48.123887134639","longitude":"11.584288912342"},{"item":"http://www.wikidata.org/entity/Q66547639","itemLabel":"Polizeiposten Freudenberg","latitude":"49.741572","longitude":"9.323163"},{"item":"http://www.wikidata.org/entity/Q66547722","itemLabel":"Polizeiposten Limbach","latitude":"49.470603","longitude":"9.146518"},{"item":"http://www.wikidata.org/entity/Q66547855","itemLabel":"Polizeiposten Bretzfeld","latitude":"49.176378","longitude":"9.439453"},{"item":"http://www.wikidata.org/entity/Q66547930","itemLabel":"Polizeiposten Heilbronn-Böckingen","latitude":"49.13389","longitude":"9.19285"},{"item":"http://www.wikidata.org/entity/Q66495115","itemLabel":"Polizeirevier Wertheim","latitude":"49.75715","longitude":"9.51554"},{"item":"http://www.wikidata.org/entity/Q98650689","itemLabel":"Baudenkmal D-1-84-123-30 in Haar (bei München) im Ortsteil Haar","latitude":"48.105703167738","longitude":"11.740605723696"},{"item":"http://www.wikidata.org/entity/Q66547671","itemLabel":"Polizeiposten Adelsheim","latitude":"49.40211","longitude":"9.39063"},{"item":"http://www.wikidata.org/entity/Q66547942","itemLabel":"Polizeiposten Heilbronn-Neckargartach","latitude":"49.16917","longitude":"9.20037"},{"item":"http://www.wikidata.org/entity/Q66495092","itemLabel":"Polizeirevier Heilbronn-Böckingen","latitude":"49.14929","longitude":"9.19704"},{"item":"http://www.wikidata.org/entity/Q106727802","itemLabel":"Bundespolizeirevier Göttingen","latitude":"51.53738","longitude":"9.92522"},{"item":"http://www.wikidata.org/entity/Q106728652","itemLabel":"Revierkommissariat Naumburg (Saale)","latitude":"51.1606","longitude":"11.80582"},{"item":"http://www.wikidata.org/entity/Q66547717","itemLabel":"Polizeiposten Aglasterhausen","latitude":"49.3559","longitude":"8.984221"},{"item":"http://www.wikidata.org/entity/Q66547654","itemLabel":"Polizeiposten Külsheim","latitude":"49.66997","longitude":"9.52157"},{"item":"http://www.wikidata.org/entity/Q66547622","itemLabel":"Polizeiposten Lauda-Königshofen","latitude":"49.55472","longitude":"9.71173"},{"item":"http://www.wikidata.org/entity/Q66548735","itemLabel":"Polizeiposten Güglingen","latitude":"49.06638","longitude":"8.99958"},{"item":"http://www.wikidata.org/entity/Q66548043","itemLabel":"Polizeiposten Heilbronn-Sontheim","latitude":"49.11965","longitude":"9.19103"},{"item":"http://www.wikidata.org/entity/Q66547597","itemLabel":"Polizeiposten Weikersheim","latitude":"49.480703","longitude":"9.896784"},{"item":"http://www.wikidata.org/entity/Q66549313","itemLabel":"Polizeiposten Möckmühl","latitude":"49.32267","longitude":"9.3598"},{"item":"http://www.wikidata.org/entity/Q66495106","itemLabel":"Polizeirevier Öhringen","latitude":"49.20135","longitude":"9.50735"},{"item":"http://www.wikidata.org/entity/Q66547726","itemLabel":"Polizeiposten Schefflenz","latitude":"49.397458","longitude":"9.274888"},{"item":"http://www.wikidata.org/entity/Q98581804","itemLabel":"Baudenkmal D-4-63-000-375 in Coburg im Ortsteil Coburg","latitude":"50.270316150421","longitude":"10.965814683039"},{"item":"http://www.wikidata.org/entity/Q66495095","itemLabel":"Polizeirevier Künzelsau","latitude":"49.27949","longitude":"9.68209"},{"item":"http://www.wikidata.org/entity/Q66548490","itemLabel":"Polizeiposten Bad Rappenau","latitude":"49.24001","longitude":"9.10046"},{"item":"http://www.wikidata.org/entity/Q66548006","itemLabel":"Polizeiposten Heilbronn-Innenstadt","latitude":"49.13887","longitude":"9.21867"},{"item":"http://www.wikidata.org/entity/Q66495109","itemLabel":"Polizeirevier Tauberbischofsheim","latitude":"49.62032","longitude":"9.65911"},{"item":"http://www.wikidata.org/entity/Q66547675","itemLabel":"Polizeiposten Hardheim","latitude":"49.6108","longitude":"9.47475"},{"item":"http://www.wikidata.org/entity/Q66495098","itemLabel":"Polizeirevier Lauffen am Neckar","latitude":"49.07385","longitude":"9.1553"},{"item":"http://www.wikidata.org/entity/Q66494828","itemLabel":"Polizeirevier Buchen (Odenwald)","latitude":"49.51635","longitude":"9.32383"},{"item":"http://www.wikidata.org/entity/Q106728702","itemLabel":"Polizeirevier 6","latitude":"48.8065","longitude":"9.22621"},{"item":"http://www.wikidata.org/entity/Q106728667","itemLabel":"Polizeikommissariat Meine","latitude":"52.38698","longitude":"10.54311"},{"item":"http://www.wikidata.org/entity/Q66549135","itemLabel":"Polizeiposten Bad Friedrichshall","latitude":"49.228504","longitude":"9.2123"},{"item":"http://www.wikidata.org/entity/Q66495104","itemLabel":"Polizeirevier Neckarsulm","latitude":"49.19023","longitude":"9.2245"},{"item":"http://www.wikidata.org/entity/Q66549261","itemLabel":"Polizeiposten Gundelsheim","latitude":"49.28403","longitude":"9.16063"},{"item":"http://www.wikidata.org/entity/Q106727825","itemLabel":"Bundespolizeirevier Mainz","latitude":"50.00193","longitude":"8.25865"},{"item":"http://www.wikidata.org/entity/Q66549197","itemLabel":"Polizeiposten Bad Wimpfen","latitude":"49.22937","longitude":"9.16251"},{"item":"http://www.wikidata.org/entity/Q66549549","itemLabel":"Polizeiposten Obersulm","latitude":"49.13308","longitude":"9.37791"},{"item":"http://www.wikidata.org/entity/Q98621991","itemLabel":"Polizeiverwaltungsgebäude Burghof 2 in Cadolzburg (D-5-73-114-10#4)","latitude":"49.45907627068","longitude":"10.850502076933"},{"item":"http://www.wikidata.org/entity/Q107208455","itemLabel":"Polizeiwache Abschnitt 28","latitude":"52.522079834557","longitude":"13.366026018842"},{"item":"http://www.wikidata.org/entity/Q106728777","itemLabel":"Polizeiposten Neckarvorstadt","latitude":"48.80738","longitude":"9.21073"},{"item":"http://www.wikidata.org/entity/Q66549359","itemLabel":"Polizeiposten Neuenstadt","latitude":"49.237291","longitude":"9.329438"},{"item":"http://www.wikidata.org/entity/Q66495085","itemLabel":"Polizeirevier Eppingen","latitude":"49.13554","longitude":"8.90639"},{"item":"http://www.wikidata.org/entity/Q66547679","itemLabel":"Polizeiposten Walldürn","latitude":"49.57978","longitude":"9.36595"},{"item":"http://www.wikidata.org/entity/Q66495089","itemLabel":"Polizeirevier Heilbronn","latitude":"49.12345","longitude":"9.22154"},{"item":"http://www.wikidata.org/entity/Q66548809","itemLabel":"Polizeiposten Leintal","latitude":"49.142638","longitude":"9.054554"},{"item":"http://www.wikidata.org/entity/Q88174322","itemLabel":"Polizeiinspektion Charlottenburg","latitude":"52.511138888889","longitude":"13.295555555556"},{"item":"http://www.wikidata.org/entity/Q66548689","itemLabel":"Polizeiposten Brackenheim","latitude":"49.07623","longitude":"9.06598"}]