[{"item":"http://www.wikidata.org/entity/Q11824133","itemLabel":"Q11824133","latitude":"54.02076","longitude":"14.73614"},{"item":"http://www.wikidata.org/entity/Q1574854","itemLabel":"Handelshafen Magdeburg","latitude":"52.1425","longitude":"11.6569"},{"item":"http://www.wikidata.org/entity/Q1533876","itemLabel":"Godorfer Hafen","latitude":"50.8481","longitude":"6.98278"},{"item":"http://www.wikidata.org/entity/Q16064968","itemLabel":"Hafen Lengfurt","latitude":"49.8055","longitude":"9.6157"},{"item":"http://www.wikidata.org/entity/Q55972875","itemLabel":"Port de Friedrichshafen","latitude":"47.65035","longitude":"9.48311"},{"item":"http://www.wikidata.org/entity/Q67768076","itemLabel":"Holzhafen","latitude":"53.535833333333","longitude":"8.5913888888889"},{"item":"http://www.wikidata.org/entity/Q22693622","itemLabel":"port de Germersheim","latitude":"49.232498","longitude":"8.386442"},{"item":"http://www.wikidata.org/entity/Q1585496","itemLabel":"Harlesieler Hafen","latitude":"53.7067","longitude":"7.80879"},{"item":"http://www.wikidata.org/entity/Q113534508","itemLabel":"Rheinkanal","latitude":"51.4294","longitude":"6.74406"},{"item":"http://www.wikidata.org/entity/Q38110855","itemLabel":"Werkshafen Schwelgern","latitude":"51.509451","longitude":"6.729714"},{"item":"http://www.wikidata.org/entity/Q75998293","itemLabel":"Lübecker Hafen","latitude":"53.883333333333","longitude":"10.7"},{"item":"http://www.wikidata.org/entity/Q23786089","itemLabel":"Häfen Speyer","latitude":"49.311244","longitude":"8.456575"},{"item":"http://www.wikidata.org/entity/Q110914169","itemLabel":"Hafen Glowe","latitude":"54.57389","longitude":"13.46851"},{"item":"http://www.wikidata.org/entity/Q1567841","itemLabel":"Hafen Spiekeroog","latitude":"53.76476","longitude":"7.696846"},{"item":"http://www.wikidata.org/entity/Q116978844","itemLabel":"Hafen Ditzum","latitude":"53.3168997","longitude":"7.2819528"},{"item":"http://www.wikidata.org/entity/Q113847284","itemLabel":"Stadthafen Leipzig","latitude":"51.3390269","longitude":"12.3598025"},{"item":"http://www.wikidata.org/entity/Q60322675","itemLabel":"Offshore-Basishafen Cuxhaven","latitude":"53.849166666667","longitude":"8.7461111111111"},{"item":"http://www.wikidata.org/entity/Q99656515","itemLabel":"Hafen Kappeln","latitude":"54.666666666667","longitude":"9.9333333333333"},{"item":"http://www.wikidata.org/entity/Q18020170","itemLabel":"Flensburger Hafen","latitude":"54.801111111111","longitude":"9.4377777777778"},{"item":"http://www.wikidata.org/entity/Q106691851","itemLabel":"Vareler Hafen","latitude":"53.407829","longitude":"8.172643"},{"item":"http://www.wikidata.org/entity/Q19971670","itemLabel":"Häfen Eggolsheim","latitude":"49.77151","longitude":"11.02507"},{"item":"http://www.wikidata.org/entity/Q99655989","itemLabel":"Hafen Heiligenhafen","latitude":"54.366666666667","longitude":"10.983333333333"},{"item":"http://www.wikidata.org/entity/Q106140935","itemLabel":"Außenbezirk und Bauhof Geesthacht","latitude":"53.430981","longitude":"10.353992"},{"item":"http://www.wikidata.org/entity/Q24039823","itemLabel":"Hafen Recke","latitude":"52.356435","longitude":"7.718738"},{"item":"http://www.wikidata.org/entity/Q116985633","itemLabel":"Alter Hafen Hooksiel","latitude":"53.6270811","longitude":"8.0288136"},{"item":"http://www.wikidata.org/entity/Q23786062","itemLabel":"port de Duisbourg","latitude":"51.3975","longitude":"6.7377777777778"},{"item":"http://www.wikidata.org/entity/Q115914781","itemLabel":"Sicherheitshafen","latitude":"50.950467","longitude":"6.961642"},{"item":"http://www.wikidata.org/entity/Q2132857","itemLabel":"Ratsdelft","latitude":"53.3658","longitude":"7.20639"},{"item":"http://www.wikidata.org/entity/Q64339635","itemLabel":"Schulauer Hafen","latitude":"53.570277777778","longitude":"9.6986111111111"},{"item":"http://www.wikidata.org/entity/Q24056854","itemLabel":"Hafen Getmold","latitude":"52.342057","longitude":"8.485932"},{"item":"http://www.wikidata.org/entity/Q106989175","itemLabel":"Hafen Oldenburg i.O.","latitude":"53.142","longitude":"8.24775"},{"item":"http://www.wikidata.org/entity/Q883613","itemLabel":"Emder Hafen","latitude":"53.34444","longitude":"7.2"},{"item":"http://www.wikidata.org/entity/Q1393998","itemLabel":"Falderndelft","latitude":"53.3661","longitude":"7.21028"},{"item":"http://www.wikidata.org/entity/Q1339158","itemLabel":"Hafen Wremen","latitude":"53.647889","longitude":"8.493856"},{"item":"http://www.wikidata.org/entity/Q1267853","itemLabel":"Wilhelmshavener Häfen","latitude":"53.50694444","longitude":"8.09722222"},{"item":"http://www.wikidata.org/entity/Q2264882","itemLabel":"Seehafen Stade","latitude":"53.654149","longitude":"9.509663"},{"item":"http://www.wikidata.org/entity/Q24531252","itemLabel":"Mehrum","latitude":"52.31075","longitude":"10.092"},{"item":"http://www.wikidata.org/entity/Q1478785","itemLabel":"Fährhafen Sassnitz","latitude":"54.48638889","longitude":"13.58861111"},{"item":"http://www.wikidata.org/entity/Q42632133","itemLabel":"Hafen Riesa","latitude":"51.319526","longitude":"13.281404"},{"item":"http://www.wikidata.org/entity/Q115942334","itemLabel":"Gondelhafen","latitude":"51.052935","longitude":"13.74613"},{"item":"http://www.wikidata.org/entity/Q113482907","itemLabel":"Opelhafen Rüsselsheim","latitude":"49.995969","longitude":"8.39816"},{"item":"http://www.wikidata.org/entity/Q11824133","itemLabel":"Q11824133","latitude":"54.02","longitude":"14.7358"},{"item":"http://www.wikidata.org/entity/Q1722500","itemLabel":"Nordhafen Walsum","latitude":"51.5308","longitude":"6.71269"},{"item":"http://www.wikidata.org/entity/Q115570866","itemLabel":"Dorumer Siel","latitude":"53.738713","longitude":"8.515842"},{"item":"http://www.wikidata.org/entity/Q1567852","itemLabel":"Hafen Wangerooge","latitude":"53.774632","longitude":"7.867885"},{"item":"http://www.wikidata.org/entity/Q34966739","itemLabel":"Hafen Travemünde","latitude":"53.94075","longitude":"10.85852"},{"item":"http://www.wikidata.org/entity/Q27044178","itemLabel":"Hohentorshafen","latitude":"53.07698","longitude":"8.784663"},{"item":"http://www.wikidata.org/entity/Q99655686","itemLabel":"Hafen Neustadt","latitude":"54.1","longitude":"10.816666666667"},{"item":"http://www.wikidata.org/entity/Q41313146","itemLabel":"Schiffsanlegeplatz für den Güterumschlag, Verladestation, sogenannte Ochsenschanze","latitude":"49.795830881286","longitude":"9.926149263094"},{"item":"http://www.wikidata.org/entity/Q19963791","itemLabel":"Lände Dietfurt","latitude":"49.024","longitude":"11.588"},{"item":"http://www.wikidata.org/entity/Q1567820","itemLabel":"Hafen Norderney","latitude":"53.6999309","longitude":"7.1597369"},{"item":"http://www.wikidata.org/entity/Q2560232","itemLabel":"Werfthafen Ruhrort","latitude":"51.4513","longitude":"6.73964"},{"item":"http://www.wikidata.org/entity/Q41352467","itemLabel":"Hafen Marktsteft","latitude":"49.696215370482","longitude":"10.132509599177"},{"item":"http://www.wikidata.org/entity/Q2147910","itemLabel":"Rheinpreußen-Hafen","latitude":"51.458179","longitude":"6.717367"},{"item":"http://www.wikidata.org/entity/Q1567821","itemLabel":"Hafen Orsoy","latitude":"51.5314","longitude":"6.67883"},{"item":"http://www.wikidata.org/entity/Q96200416","itemLabel":"Rheinhafen Ossenberg","latitude":"51.580977","longitude":"6.595275"},{"item":"http://www.wikidata.org/entity/Q1451532","itemLabel":"Museumshafen Carolinensiel","latitude":"53.6911","longitude":"7.80189"},{"item":"http://www.wikidata.org/entity/Q32064908","itemLabel":"Kieler Hafen","latitude":"54.33635","longitude":"10.173191666667"},{"item":"http://www.wikidata.org/entity/Q1567807","itemLabel":"Hafen Mannheim","latitude":"49.51694444","longitude":"8.4675"},{"item":"http://www.wikidata.org/entity/Q19964030","itemLabel":"Lände Mühlhausen","latitude":"49.16091","longitude":"11.42475"},{"item":"http://www.wikidata.org/entity/Q116985830","itemLabel":"Außenhafen Hooksiel","latitude":"53.6425569","longitude":"8.08385"},{"item":"http://www.wikidata.org/entity/Q99654813","itemLabel":"Seehafen Wismar","latitude":"53.9","longitude":"11.466666666667"},{"item":"http://www.wikidata.org/entity/Q99671617","itemLabel":"Hafen Büsum","latitude":"54.12","longitude":"8.857"},{"item":"http://www.wikidata.org/entity/Q29464446","itemLabel":"Hafen Hasloch","latitude":"49.784","longitude":"9.47258"},{"item":"http://www.wikidata.org/entity/Q113856071","itemLabel":"Hafen Zöbigker","latitude":"51.2632592","longitude":"12.3437839"},{"item":"http://www.wikidata.org/entity/Q99656436","itemLabel":"Hafen Eckernförder","latitude":"54.469","longitude":"9.8575"},{"item":"http://www.wikidata.org/entity/Q99655730","itemLabel":"Hafen Orth","latitude":"54.45","longitude":"11.05"},{"item":"http://www.wikidata.org/entity/Q99654481","itemLabel":"Hafen Stralsund","latitude":"54.316666666667","longitude":"13.1"},{"item":"http://www.wikidata.org/entity/Q1525783","itemLabel":"Port de l'Ouest","latitude":"52.54","longitude":"13.3347"},{"item":"http://www.wikidata.org/entity/Q19295179","itemLabel":"Lände Roth","latitude":"49.2396","longitude":"11.1419"},{"item":"http://www.wikidata.org/entity/Q110738651","itemLabel":"Großer Spreewaldhafen Lübbenau","latitude":"51.8672","longitude":"13.973163888889"},{"item":"http://www.wikidata.org/entity/Q1090823","itemLabel":"Port de Rostock","latitude":"54.1479","longitude":"12.1153"},{"item":"http://www.wikidata.org/entity/Q110290777","itemLabel":"Hafen Grimberg","latitude":"51.54589","longitude":"7.11906"},{"item":"http://www.wikidata.org/entity/Q110920995","itemLabel":"Hafen Sassnitz","latitude":"54.51445","longitude":"13.6463"},{"item":"http://www.wikidata.org/entity/Q110409265","itemLabel":"Hafen Bremervörde","latitude":"53.484784","longitude":"9.155401"},{"item":"http://www.wikidata.org/entity/Q1885622","itemLabel":"Mainhafen Hanau","latitude":"50.118975","longitude":"8.918356"},{"item":"http://www.wikidata.org/entity/Q99671940","itemLabel":"Elbehafen Brunsbüttel","latitude":"53.883333333333","longitude":"9.1666666666667"},{"item":"http://www.wikidata.org/entity/Q2360012","itemLabel":"Städtischer Rheinhafen Wesel","latitude":"51.6505","longitude":"6.60787"},{"item":"http://www.wikidata.org/entity/Q53997634","itemLabel":"Schwentineflotte","latitude":"54.383333333333","longitude":"10.166666666667"},{"item":"http://www.wikidata.org/entity/Q99654443","itemLabel":"Hafen Wolgast","latitude":"54.05","longitude":"13.783333333333"},{"item":"http://www.wikidata.org/entity/Q15058336","itemLabel":"O’Swaldkai","latitude":"53.531087","longitude":"10.004868"},{"item":"http://www.wikidata.org/entity/Q99535359","itemLabel":"Häfen Forchheim","latitude":"49.706634","longitude":"11.054183"},{"item":"http://www.wikidata.org/entity/Q1958691","itemLabel":"port de Mülheimer","latitude":"50.955","longitude":"6.98546"},{"item":"http://www.wikidata.org/entity/Q99671495","itemLabel":"Husumer Hafen","latitude":"54.471","longitude":"9.0325"},{"item":"http://www.wikidata.org/entity/Q110908374","itemLabel":"Alter Hafen Brunsbüttel","latitude":"53.89481","longitude":"9.1268"},{"item":"http://www.wikidata.org/entity/Q1898262","itemLabel":"Hafen Lubmin","latitude":"54.1517","longitude":"13.6472"},{"item":"http://www.wikidata.org/entity/Q116979283","itemLabel":"Hafen Petkum","latitude":"53.3308156","longitude":"7.2705411"}]