[{"item":"http://www.wikidata.org/entity/Q15052598","itemLabel":"Caprima","latitude":"48.62884203","longitude":"12.50653446"},{"item":"http://www.wikidata.org/entity/Q1921793","itemLabel":"Merkel’sches Schwimmbad","latitude":"48.7378","longitude":"9.31212"},{"item":"http://www.wikidata.org/entity/Q104051855","itemLabel":"Bodensee-Therme Konstanz","latitude":"47.66463","longitude":"9.20901"},{"item":"http://www.wikidata.org/entity/Q1936569","itemLabel":"Mineralbad Leuze","latitude":"48.7984","longitude":"9.21093"},{"item":"http://www.wikidata.org/entity/Q105847356","itemLabel":"Hallenbad Waiblingen","latitude":"48.83073","longitude":"9.32289"},{"item":"http://www.wikidata.org/entity/Q26879062","itemLabel":"Parkbad Velbert","latitude":"51.34045","longitude":"7.03189"},{"item":"http://www.wikidata.org/entity/Q2257718","itemLabel":"Schwimmzentrum Oststadt","latitude":"51.443","longitude":"7.1063"},{"item":"http://www.wikidata.org/entity/Q1589423","itemLabel":"Hauptbad Essen","latitude":"51.4555","longitude":"7.0175"},{"item":"http://www.wikidata.org/entity/Q1464727","itemLabel":"Schwimmzentrum Rüttenscheid","latitude":"51.4349","longitude":"7.0154"},{"item":"http://www.wikidata.org/entity/Q1464167","itemLabel":"Friedrichsbad Essen","latitude":"51.4528","longitude":"6.985"},{"item":"http://www.wikidata.org/entity/Q439634","itemLabel":"Altes Stadtbad","latitude":"48.3711","longitude":"10.9004"},{"item":"http://www.wikidata.org/entity/Q2264717","itemLabel":"Seedammbad","latitude":"50.2246","longitude":"8.63343"},{"item":"http://www.wikidata.org/entity/Q1936572","itemLabel":"Mineralbad Berg","latitude":"48.7961","longitude":"9.20611"},{"item":"http://www.wikidata.org/entity/Q110383311","itemLabel":"Katzenbuckel-Therme","latitude":"49.4589752","longitude":"9.0666657"},{"item":"http://www.wikidata.org/entity/Q2326603","itemLabel":"Stadtbad Auf der Bleiche","latitude":"51.2711","longitude":"7.22833"},{"item":"http://www.wikidata.org/entity/Q28124857","itemLabel":"Murrbäder Backnang Wonnemar","latitude":"48.951376","longitude":"9.456532"},{"item":"http://www.wikidata.org/entity/Q1480297","itemLabel":"Fössebad","latitude":"52.3717","longitude":"9.6971"},{"item":"http://www.wikidata.org/entity/Q109443757","itemLabel":"Ulla-Klinger-Halle","latitude":"50.76783","longitude":"6.0578519444444"},{"item":"http://www.wikidata.org/entity/Q66066367","itemLabel":"Stadionbad","latitude":"49.35243","longitude":"8.12161"},{"item":"http://www.wikidata.org/entity/Q46254736","itemLabel":"Solymar Therme","latitude":"49.494163","longitude":"9.789531"},{"item":"http://www.wikidata.org/entity/Q66001171","itemLabel":"Dulsbergbad","latitude":"53.58679","longitude":"10.07282"},{"item":"http://www.wikidata.org/entity/Q110664755","itemLabel":"Badezentrum Bockum","latitude":"51.3513","longitude":"6.6124"},{"item":"http://www.wikidata.org/entity/Q2264556","itemLabel":"Seebad Haltern","latitude":"51.7428","longitude":"7.21306"},{"item":"http://www.wikidata.org/entity/Q28119413","itemLabel":"F.3 Familien- und Freizeitbad Fellbach","latitude":"48.80956","longitude":"9.26812"},{"item":"http://www.wikidata.org/entity/Q1949301","itemLabel":"Moskaubad","latitude":"52.2637","longitude":"8.03659"},{"item":"http://www.wikidata.org/entity/Q82309236","itemLabel":"AquaMagis Plettenberg","latitude":"51.231944444444","longitude":"7.85"},{"item":"http://www.wikidata.org/entity/Q26012645","itemLabel":"Europakampfbahn","latitude":"52.135833333333","longitude":"11.698611111111"},{"item":"http://www.wikidata.org/entity/Q1395020","itemLabel":"Nordbad","latitude":"51.0658","longitude":"13.7545"},{"item":"http://www.wikidata.org/entity/Q28137399","itemLabel":"Wunnebad","latitude":"48.865769","longitude":"9.39524"},{"item":"http://www.wikidata.org/entity/Q28109518","itemLabel":"Oskar Frech SeeBad","latitude":"48.796637","longitude":"9.515868"},{"item":"http://www.wikidata.org/entity/Q114982230","itemLabel":"Freibad Erbstetten","latitude":"48.92275","longitude":"9.38841"},{"item":"http://www.wikidata.org/entity/Q56692385","itemLabel":"Nordbad","latitude":"49.887586","longitude":"8.663223"},{"item":"http://www.wikidata.org/entity/Q2326605","itemLabel":"Stadtbad Bochum","latitude":"51.48083333","longitude":"7.22166667"},{"item":"http://www.wikidata.org/entity/Q29733496","itemLabel":"Wananas","latitude":"51.540285","longitude":"7.170617"},{"item":"http://www.wikidata.org/entity/Q65560292","itemLabel":"Freizeitbad Sylter Welle","latitude":"54.9098","longitude":"8.2998"},{"item":"http://www.wikidata.org/entity/Q66121457","itemLabel":"Rheinbad","latitude":"51.2653","longitude":"6.732"},{"item":"http://www.wikidata.org/entity/Q2257713","itemLabel":"Schwimmzentrum Kettwig","latitude":"51.3736","longitude":"6.934"},{"item":"http://www.wikidata.org/entity/Q96943612","itemLabel":"Familienbad Ohlsdorf","latitude":"53.621562","longitude":"10.030751"},{"item":"http://www.wikidata.org/entity/Q18703026","itemLabel":"Westbad","latitude":"48.140625","longitude":"11.474747222222"},{"item":"http://www.wikidata.org/entity/Q993968","itemLabel":"Allwetterbad","latitude":"53.2236","longitude":"8.78611"},{"item":"http://www.wikidata.org/entity/Q2257668","itemLabel":"Schwimmoper","latitude":"51.2528","longitude":"7.14083"},{"item":"http://www.wikidata.org/entity/Q2326606","itemLabel":"Stadtbad Kleine Flurstraße","latitude":"51.2724","longitude":"7.20117"},{"item":"http://www.wikidata.org/entity/Q47837953","itemLabel":"Nettebad","latitude":"52.302777777778","longitude":"8.0519444444444"},{"item":"http://www.wikidata.org/entity/Q1494490","itemLabel":"Kurbad Friedrich-Engels-Allee","latitude":"51.2655","longitude":"7.18644"},{"item":"http://www.wikidata.org/entity/Q1018949","itemLabel":"Bäder in Kempten (Allgäu)","latitude":"47.7203","longitude":"10.2926"},{"item":"http://www.wikidata.org/entity/Q1997626","itemLabel":"Nordbad","latitude":"48.160265040714","longitude":"11.564117042445"},{"item":"http://www.wikidata.org/entity/Q2258158","itemLabel":"Schyrenbad","latitude":"48.1198","longitude":"11.5698"},{"item":"http://www.wikidata.org/entity/Q2257623","itemLabel":"Bad am Brauhausberg","latitude":"52.389","longitude":"13.0631"},{"item":"http://www.wikidata.org/entity/Q86069772","itemLabel":"MineralBad Cannstatt","latitude":"48.80927","longitude":"9.22284"},{"item":"http://www.wikidata.org/entity/Q99610344","itemLabel":"Zschonergrundbad","latitude":"51.06676","longitude":"13.65622"},{"item":"http://www.wikidata.org/entity/Q107405792","itemLabel":"HofBad","latitude":"50.313994","longitude":"11.92057"},{"item":"http://www.wikidata.org/entity/Q56771273","itemLabel":"Miramar","latitude":"49.533","longitude":"8.643"},{"item":"http://www.wikidata.org/entity/Q1454979","itemLabel":"Freizeitbad Heveney","latitude":"51.436194444444","longitude":"7.2832694444444"},{"item":"http://www.wikidata.org/entity/Q1656579","itemLabel":"Städtische Badeanstalt Neuwied","latitude":"50.4291","longitude":"7.46129"},{"item":"http://www.wikidata.org/entity/Q1825427","itemLabel":"Limes-Thermen","latitude":"48.8195","longitude":"10.0751"},{"item":"http://www.wikidata.org/entity/Q61451655","itemLabel":"Röthelheimbad mit Hannah-Stockbauer-Halle","latitude":"49.583544","longitude":"11.019677"},{"item":"http://www.wikidata.org/entity/Q20650609","itemLabel":"bade:haus Norderney","latitude":"53.704194444444","longitude":"7.1437222222222"},{"item":"http://www.wikidata.org/entity/Q1701674","itemLabel":"Mineralfreibad Oberes Bottwartal","latitude":"49.031","longitude":"9.32047"},{"item":"http://www.wikidata.org/entity/Q27998690","itemLabel":"Volksschwimmhalle Lankow","latitude":"53.643608","longitude":"11.385187"},{"item":"http://www.wikidata.org/entity/Q2380465","itemLabel":"Südbad (München)","latitude":"48.117","longitude":"11.5444"},{"item":"http://www.wikidata.org/entity/Q93950705","itemLabel":"Südbad (Trier)","latitude":"49.729444444444","longitude":"6.6427777777778"}]